Name,Type,Phone Number,Email,Physical Address,Latitude,Longitude,Region
1301st Dental Dispensary,Clinic,,,"Lawton Avenue, Taguig, 1634",14.535092,121.037524,Manila (Philippines)
210 Intercon Diagnostic Center,Clinic,,,"Del Monte Avenue, Quezon City",14.637471,120.995351,Manila (Philippines)
5CircleFrames,Clinic,,,,14.628928,121.064324,Manila (Philippines)
98 msa agri,Clinic,,,,14.698543,120.995192,Manila (Philippines)
A.C. Lim Polyclinic,Clinic,+6325328797,,123 Reverend Gregorio Aglipay Street,14.588924,121.023946,Manila (Philippines)
A.H. Lacson Health Center,Clinic,,,Suter Street,14.580846,121.013618,Manila (Philippines)
A.N. Rodriguez Maternity Clinic,Clinic,,,,14.6657,120.997718,Manila (Philippines)
ABC Clinic,Clinic,,,Rizal Avenue,14.626401,120.98312,Manila (Philippines)
AF Holy Spirit Clinic,Clinic,,,"BF Homes Road, Quezon City, 1127",14.686666,121.084352,Manila (Philippines)
AJA Multi-Specialty Diagnostic and Maternity Clinic,Clinic,,,Que Grande Road,14.691501,121.006953,Manila (Philippines)
ALZOL CLINIC,Clinic,,,,14.648445,120.962144,Manila (Philippines)
ANS Animal Clinic,Clinic,,,Deparo Road,14.739216,121.028264,Manila (Philippines)
ARDI Health Care Center,Clinic,,,M. Suarez Avenue,14.568145,121.086079,Manila (Philippines)
ARO Aesthetic & Medical Center,Clinic,,,,14.656483,120.983747,Manila (Philippines)
Accuhealth Diagnostics,Clinic,,,"C. V. Starr Avenue, Las Piñas",14.449147,120.978893,Manila (Philippines)
Ace Diagnostics,Clinic,,,Commonwealth Avenue,14.704862,121.075778,Manila (Philippines)
Acu Care Center,Clinic,,,"33 Annapolis Street, San Juan",14.604609,121.052889,Manila (Philippines)
Adoracion Diagnostic Center,Clinic,,,,14.580797,121.013283,Manila (Philippines)
Aesthetic Science,Clinic,,,,14.563111,121.025081,Manila (Philippines)
Aesthetic Science Quezon City,Clinic,,,"Scout Limbaga Street, Quezon City",14.634803,121.027621,Manila (Philippines)
Agnes Dental Clinic,Clinic,,,"Langit Road, Caloocan",14.780975,121.033687,Manila (Philippines)
Agoncillo Medical Clinic,Clinic,+63 2 5302 5288,agoncillomed@yahoo.com,"San Marcelino Street, Manila, 1004",14.57533,120.991295,Manila (Philippines)
Aimee Aguilar-Teo M.D.,Clinic,,,"Burgos Circle, Taguig, 1635",14.55224,121.044479,Manila (Philippines)
Alabang Hills Clinic,Clinic,,,,14.434906,121.03229,Manila (Philippines)
Alabang Medical Clinic,Clinic,,,"Alabang-Zapote Road, Las Piñas",14.430722,121.014723,Manila (Philippines)
Aldana-Ilaya Health Center,Clinic,,,,14.478836,120.97815,Manila (Philippines)
Almanza II Health Center,Clinic,,,,14.420058,121.016018,Manila (Philippines)
American Bio-Clinical Laboratories International,Clinic,+632 86243171; +632 82360865,info@abclab.com.ph,,14.426752,121.025226,Manila (Philippines)
American Out Patient Clinic,Clinic,+63 2 8527 1611,,"Andres Soriano Avenue, Manila, 1002",14.592982,120.973162,Manila (Philippines)
Angelus Medical Clinic,Clinic,,amci@angelusmedicalph.com,,14.556571,121.017925,Manila (Philippines)
Animal Bite Center,Clinic,532-87-97,,123 Reverend Gregorio Aglipay Street,14.588961,121.023921,Manila (Philippines)
Animal Bite Center,Clinic,,,,14.776924,121.047266,Manila (Philippines)
Animal Bite Clinic,Clinic,,,Camarin Road,14.741828,121.03353,Manila (Philippines)
Animal Bite Clinic,Clinic,,,General T. de Leon Road,14.687231,120.996844,Manila (Philippines)
AnimalBite Bakuna,Clinic,,,,14.659614,121.025432,Manila (Philippines)
Araneta Employees Clinic,Clinic,,,,14.62191,121.054578,Manila (Philippines)
Arciaga Medical Clinic,Clinic,,,National Road,14.407763,121.046419,Manila (Philippines)
Arugain ANM,Clinic,,,20th Avenue,14.625884,121.06021,Manila (Philippines)
Asia Pacific Medical and Diagnostic Services Inc.,Clinic,,,,14.553649,121.003396,Manila (Philippines)
Associated Medical Services,Clinic,+63 2889 25906,info@amsclinic.net,,14.558603,121.015698,Manila (Philippines)
Ate Ivy Lying Inn,Clinic,,,,14.779962,121.038068,Manila (Philippines)
Aventus,Clinic,,,,14.557925,121.014511,Manila (Philippines)
Aventus Medical Care,Clinic,,,Doña Julia Vargas Avenue,14.584834,121.058298,Manila (Philippines)
"Aventus Medical Center, Inc.",Clinic,584-2430,,1 Sapphire Road,14.589305,121.061771,Manila (Philippines)
Avila Polyclinic,Clinic,,,"P. Herrera Street, Pateros, 1620",14.544173,121.064827,Manila (Philippines)
Avs Medical Clinic,Clinic,,,,14.577759,120.98016,Manila (Philippines)
BF Carnival Health Center,Clinic,,,,14.432406,120.985623,Manila (Philippines)
BPB Medical Clinic,Clinic,,,,14.544023,121.105612,Manila (Philippines)
Babybond Ultrasound,Clinic,,,Pasay,14.536491,120.981275,Manila (Philippines)
Bacolod Family Clinic,Clinic,,,,14.763358,121.043417,Manila (Philippines)
Bago Bantay Sentrong Sigla Health Center,Clinic,,,"Santo Niño Street, Quezon City, 1105",14.660027,121.025796,Manila (Philippines)
Bambang Health Center,Clinic,,,"Kentucky Street, Taguig City, PH",14.524531,121.071843,Manila (Philippines)
Barangay 201 Health Center,Clinic,,,"Alley 13, Pasay",14.508393,121.028996,Manila (Philippines)
Barangay Bel-Air Health Office,Clinic,,,"Tordesillas Street, Makati, 1227",14.560439,121.023127,Manila (Philippines)
Barangay Calumpang Health Center,Clinic,,,,14.621827,121.093212,Manila (Philippines)
Barangay Dasmariñas Clinic,Clinic,+63 2 8893 0215,,"1419 Campanilla Street, Makati, 1231",14.536976,121.030472,Manila (Philippines)
Barangay Rizal Health Center,Clinic,,,,14.538908,121.06084,Manila (Philippines)
Barangka Health Center,Clinic,,,,14.633053,121.08234,Manila (Philippines)
Basilica de Piat Medical Clinic,Clinic,,,Centennial II Extension,14.544788,121.09963,Manila (Philippines)
Batasan Hills Super Health Center,Clinic,+63932 2959752;+63923 2790558,,"1 IBP Road, Quezon City",14.686255,121.088448,Manila (Philippines)
Batasan Social Hygiene Clinic,Clinic,,,,14.686303,121.088171,Manila (Philippines)
Bayanan Medical Clinic,Clinic,,,,14.407651,121.046419,Manila (Philippines)
Beaufaces,Clinic,,,,14.621413,121.023548,Manila (Philippines)
Belo Medical Group,Clinic,,,Muntinlupa,14.421562,121.034937,Manila (Philippines)
Benavides Cancer Institute,Clinic,,,,14.610908,120.990466,Manila (Philippines)
Best Diagnostic Corp,Clinic,,,,14.644701,121.052041,Manila (Philippines)
Better World Cubao,Clinic,,,,14.613941,121.066051,Manila (Philippines)
Betty Go Belmonte Super Health Center,Clinic,,,Artillery,14.678323,121.071535,Manila (Philippines)
Beverly Hills Medical Group,Clinic,,,"57 Paseo de Roxas, Makati",14.559042,121.029735,Manila (Philippines)
Bio millenium Diagnostic,Clinic,,,,14.608221,120.974487,Manila (Philippines)
Bioscan Clinical Laboratory,Clinic,,,,14.643731,120.982548,Manila (Philippines)
Borough Lasik Center,Clinic,,,Pasay,14.536567,120.981399,Manila (Philippines)
Borough Medical Clinics,Clinic,,,Pasay,14.536568,120.981365,Manila (Philippines)
Burol Puericulture & Health Center,Clinic,,,,14.589315,121.027418,Manila (Philippines)
CAA-B Health Center,Clinic,,,,14.456846,120.998322,Manila (Philippines)
CAH Medical Clinic,Clinic,+63 2 415 2233,,"662 Banawe Street, Quezon City",14.633404,121.001697,Manila (Philippines)
CBZ Medical Clinic,Clinic,+63 2 526 9133;+63 2 521 4736;+63 2 526 9133,,"San Marcelino Street, Manila, 1000",14.578085,120.989678,Manila (Philippines)
CCMM Animal Bite Center,Clinic,,,,14.635985,121.097177,Manila (Philippines)
CIF Central Medical Clinic & Laboratory,Clinic,,,,14.636176,121.072977,Manila (Philippines)
Caa-A Health Center,Clinic,,,,14.461481,120.995851,Manila (Philippines)
Caa-C Health Center,Clinic,,,,14.455159,121.001023,Manila (Philippines)
Cabarles Maternity & Children's Clinic,Clinic,,,Heavenly Drive,14.728848,121.037039,Manila (Philippines)
Califonia Bloom,Clinic,,,,14.62205,121.024788,Manila (Philippines)
Callejo Medical Clinic,Clinic,,,"Alabang-Zapote Road, Las Piñas, 1740",14.443402,120.996037,Manila (Philippines)
Calpe Medical Services and Supplies,Clinic,+63 2 8920 1023,,"A. Mabini Street, Manila",14.575748,120.98192,Manila (Philippines)
Cangco medical clinic,Clinic,,,,14.561806,121.011165,Manila (Philippines)
Casiding Medical Clinic,Clinic,,,,14.647539,121.063682,Manila (Philippines)
Catequista Medical Clinic,Clinic,,,,14.776995,121.046352,Manila (Philippines)
Cebu Health Center,Clinic,,,,14.610665,121.007086,Manila (Philippines)
Cenon Clinic,Clinic,,,,14.713105,120.983098,Manila (Philippines)
Center for Advanced Aesthetics,Clinic,+63 918 941 7427,advancedaesthetics.career@gmail.com,"Matahimik Street, Quezon City, 1101",14.64539,121.054376,Manila (Philippines)
Centerport Medical Services Inc.,Clinic,+63 2 5260221,,"United Nations Avenue, Manila, 1000",14.579475,120.978738,Manila (Philippines)
Central Bicutan Super Health Center,Clinic,,,Taguig,14.493685,121.050986,Manila (Philippines)
Centralle Medical,Clinic,,,6th Avenue,14.645991,120.98451,Manila (Philippines)
Centralle Medical,Clinic,,,"Paso de Blas Road, Valenzuela",14.707327,120.991636,Manila (Philippines)
Chan Maternity Lying in Clinic,Clinic,,,,14.464192,120.969036,Manila (Philippines)
Children's Clinic,Clinic,,,,14.632876,121.095072,Manila (Philippines)
Christian Medical Clinic,Clinic,,,,14.612947,121.031075,Manila (Philippines)
Citimed Polyclinic,Clinic,,,,14.601309,121.004391,Manila (Philippines)
CliniKaya,Clinic,,,P. Victor Street,14.566004,121.046344,Manila (Philippines)
Clinic Coloong,Clinic,,,,14.721469,120.944723,Manila (Philippines)
Clinica Dela Luz,Clinic,,,Manila,14.592436,121.018567,Manila (Philippines)
Clinica Konsulta Medical Clinic,Clinic,+63 2 7720 9015,,,14.604185,120.97295,Manila (Philippines)
Clinica Vizcarra,Clinic,,,,14.613449,121.062365,Manila (Philippines)
Clinica de Beleza,Clinic,,,,14.454523,120.993893,Manila (Philippines)
Clinica de Salvacion,Clinic,,,Governor Wenceslao Pascual Avenue,14.669439,120.969284,Manila (Philippines)
Comprehensive Pulmonary Clinic,Clinic,8449961,,"1311 Batangas Street, Makati",14.556536,121.005991,Manila (Philippines)
Concepcion Derma Center,Clinic,,,"785 J. P. Rizal Street, Marikina, 1807",14.649515,121.100283,Manila (Philippines)
Corazon de Jesus Health Clinic,Clinic,,,,14.606651,121.031506,Manila (Philippines)
DEUPED,Clinic,,,General Ordoñez Street,14.644351,121.116855,Manila (Philippines)
DFA Clinic,Clinic,,,,14.529961,120.990381,Manila (Philippines)
"DHH Medical Clinic - Internal Medicine, Pediatrics, Orthopedics",Clinic,,,,14.663443,120.969547,Manila (Philippines)
DOH Eye Center,Clinic,,,,14.642819,121.047787,Manila (Philippines)
Dangay Medical Clinic,Clinic,,,,14.65629,121.021164,Manila (Philippines)
Daniel Fajardo Health Center,Clinic,,,,14.481671,120.980444,Manila (Philippines)
Dapitan Health Center,Clinic,,,,14.617396,120.9965,Manila (Philippines)
Delfin Salonga Health Center,Clinic,,,,14.551357,121.071027,Manila (Philippines)
Delfin Salonga Health Center,Clinic,,,Pateros,14.550573,121.069955,Manila (Philippines)
Dental Edge,Clinic,,,,14.737001,121.05996,Manila (Philippines)
DermaClinic,Clinic,,,Manila,14.603318,121.001854,Manila (Philippines)
Dermstrata,Clinic,,,,14.432976,121.010546,Manila (Philippines)
DialyMed Renal Care Center,Clinic,,,A. Mabini Street,14.656767,120.971636,Manila (Philippines)
Dialysis Center,Clinic,,,Roxas Boulevard Service Road,14.545192,120.991666,Manila (Philippines)
Dialysis Center,Clinic,,,Magsaysay Boulevard,14.602079,121.005764,Manila (Philippines)
Diliman Children's Clinic,Clinic,,,,14.653265,121.052836,Manila (Philippines)
DocHealth,Clinic,+63 917 315 4833,info.dochealthclinic@gmail.com,122 11th Avenue,14.652965,120.986571,Manila (Philippines)
Docaid Diagnostic Center & Medical Clinic,Clinic,,,E. Rodriguez Sr. Avenue,14.62248,121.046059,Manila (Philippines)
Dominico Medical Clinic,Clinic,,,,14.757165,121.056517,Manila (Philippines)
Dr.,Clinic,,,,14.660967,120.990021,Manila (Philippines)
Dr. Acuña - Santiago Medical Clinic,Clinic,,,,14.705023,120.953998,Manila (Philippines)
Dr. Elmer Santos Pediatrician Clinic,Clinic,,,,14.628938,121.096816,Manila (Philippines)
Dr. Goodhealth Family Clinic,Clinic,,,,14.621225,121.103144,Manila (Philippines)
Dr. J.F. Cadiz Healthy Clinic,Clinic,942-5285,,"528 J. P. Rizal Street, Marikina",14.640575,121.09428,Manila (Philippines)
Dr. Noel Mariano Santos Medical Clinic,Clinic,,,,14.661655,121.034405,Manila (Philippines)
Dr. Pau Animal Bite Center,Clinic,,,,14.448413,120.983724,Manila (Philippines)
Dr. Tuquero,Clinic,,,,14.577805,121.013989,Manila (Philippines)
Dra. Juliana S. Nombrado OB-Gyne Clinic,Clinic,,,,14.628907,121.096826,Manila (Philippines)
E. Aldana Health Center,Clinic,,,,14.477719,120.979882,Manila (Philippines)
E. Perlas Diagnostics & Polyclinic,Clinic,,,Pio Valenzuela Street,14.675412,120.983722,Manila (Philippines)
Eastern Marikina Dialysis Center,Clinic,,,"Cainta, 1900",14.620708,121.103241,Manila (Philippines)
Eastmed Animal Bite Center,Clinic,,,,14.73399,121.047992,Manila (Philippines)
Elicaño Cancer Clinic,Clinic,,,"E Rodriguez Sr. Ave, New Manila, Quezon City, 1113",14.618332,121.006011,Manila (Philippines)
Emmanuel Maternity and New Born Clinic,Clinic,,,,14.705963,120.989783,Manila (Philippines)
Escueta Childen's Clinic,Clinic,,,Camarin Road,14.741953,121.033594,Manila (Philippines)
Espino Lying-in Clinic,Clinic,,,,14.6677,120.964671,Manila (Philippines)
Esthetics Science Clinic,Clinic,,,,14.556522,121.025712,Manila (Philippines)
Eyevenue Vision Care Clinic,Clinic,,,Kabatuhan Road,14.740999,121.020905,Manila (Philippines)
FMN Skin Care Center,Clinic,,,,14.61496,121.061658,Manila (Philippines)
FPOP Community Healthcare Clinic,Clinic,,,Tandang Sora Avenue,14.676277,121.042324,Manila (Philippines)
Family Care,Clinic,,,Quirino Highway,14.768441,121.081281,Manila (Philippines)
Family Doc,Clinic,,,,14.632117,121.082713,Manila (Philippines)
Family Doc,Clinic,,,General A. Luna Street,14.528811,121.070916,Manila (Philippines)
Family Doc Diagnostics Clinic,Clinic,,contact@familydoc.com.ph,"17A B5 Holy Spirit Drive, Quezon City",14.684041,121.077286,Manila (Philippines)
"Family First Multispecialty, Diagnostic, and Maternity Clinic",Clinic,,,M. H. del Pilar Street,14.661354,120.969919,Manila (Philippines)
Family Health Clinic,Clinic,,,,14.62786,121.048726,Manila (Philippines)
Far Estern University Health Services,Clinic,,,"Nicanor Reyes Street, Manila",14.602888,120.987102,Manila (Philippines)
Franco Clinic,Clinic,,,,14.514615,121.053748,Manila (Philippines)
Fresenius Medical Care,Clinic,,,"Chino Roces Avenue Extension, Makati, 1231",14.540426,121.019164,Manila (Philippines)
FriendlyCare,Clinic,,,20th Avenue,14.621011,121.063285,Manila (Philippines)
Fun Ranch Clinic,Clinic,,,Pasig,14.588069,121.078278,Manila (Philippines)
Global Health Diagnostic,Clinic,,,,14.469903,121.021588,Manila (Philippines)
Global Health Diagnostics,Clinic,,,,14.646339,121.052806,Manila (Philippines)
Godsend Maternity Clinic,Clinic,,,,14.645176,120.975339,Manila (Philippines)
Good Health Clinic,Clinic,,,,14.5098,121.06753,Manila (Philippines)
Good Sheperd Children's Hospital & Maternity Clinic,Clinic,,,,14.771048,121.075894,Manila (Philippines)
Guadahealth,Clinic,,,Ramon Magsaysay Street,14.563641,121.045109,Manila (Philippines)
Guadalupe Primary Health Care Centre,Clinic,,,La Consolacion Street,14.561906,121.045458,Manila (Philippines)
Guadalupe Viejo Health Center - Makati Health Department,Clinic,,,"Gumamela Street, Makati",14.564326,121.039715,Manila (Philippines)
HQ,Clinic,7408151,,70 Nicanor Roxas Street,14.626628,121.004571,Manila (Philippines)
Hannah Medical Clinic,Clinic,,,,14.572312,120.992772,Manila (Philippines)
Heals Diagnostics,Clinic,,,,14.644998,121.052154,Manila (Philippines)
Health Connection,Clinic,,,"Pasig, 1900",14.606964,121.104356,Manila (Philippines)
Health Cube,Clinic,+63 2 652 1111,inquiry@healthcube.com.ph,"Shaw Boulevard, Mandaluyong",14.59155,121.032976,Manila (Philippines)
Health Cube Medical Clinics,Clinic,+63 2 823 1111,inquiry@healthcube.com.ph,,14.422456,121.034336,Manila (Philippines)
Health Port,Clinic,,,,14.558882,121.003149,Manila (Philippines)
Healthline Multispecialty Center,Clinic,,,,14.580284,120.982069,Manila (Philippines)
Healthsphere,Clinic,,,,14.441999,120.997361,Manila (Philippines)
Healthway,Clinic,,,1781,14.41613,121.040748,Manila (Philippines)
Healthway,Clinic,,,"Padre Faura Street, Manila, 1000",14.578002,120.982694,Manila (Philippines)
Healthway Multi-Specialty Center,Clinic,,,,14.423307,121.030269,Manila (Philippines)
Healthway Office,Clinic,+6327515085,hrd@healthway.com.ph,"108 V. A. Rufino Street, Makati, 1229",14.556288,121.017732,Manila (Philippines)
Healthway Qualimed Manila,Clinic,+63 27080000,,"Taft Avenue, Manila",14.577175,120.98703,Manila (Philippines)
Herran Laboratory & Medical Clinic,Clinic,,,,14.581503,121.012652,Manila (Philippines)
Hi-Precision,Clinic,,,East Avenue,14.637501,121.046268,Manila (Philippines)
Hi-Precision Diagnostics,Clinic,+632 8550 1735,,31st Street,14.554009,121.047338,Manila (Philippines)
Holy Mother and Child Clinic,Clinic,,,7th Street,14.521405,121.058433,Manila (Philippines)
HopeMed Pediatric and Family Clinic,Clinic,,,,14.676673,121.036727,Manila (Philippines)
Hyperbaric Medicine Facility and Wound Center,Clinic,"+63289246101, 1952",,,14.64683,121.04556,Manila (Philippines)
IHADS - International Health Aide Diagnostic Services Inc.,Clinic,+63 2 522 2772,ihadsmanila@gmail.com,"2nd Floor 1428 Taft Avenue, 1000",14.578415,120.987239,Manila (Philippines)
"IMS Health Care, Inc.",Clinic,,,National Road,14.395896,121.045108,Manila (Philippines)
IMS Wealth Care Inc.,Clinic,,,National Road,14.395352,121.045112,Manila (Philippines)
IOM Manila Health Centre,Clinic,,,"105 H. V. de la Costa Street, Makati",14.560869,121.026363,Manila (Philippines)
Icon Clinic,Clinic,,,,14.603419,121.044984,Manila (Philippines)
Ideal vision,Clinic,,,,14.737261,121.059666,Manila (Philippines)
Ilaya Health Center,Clinic,,,,14.477496,120.981325,Manila (Philippines)
Immaculate Conception Clinic,Clinic,+63 2 641 4939,,"233 Doctor Pilapil Street, Pasig, 1600",14.56477,121.085068,Manila (Philippines)
InterMed Healtcare,Clinic,,,"88 West Avenue, Quezon City",14.646921,121.028343,Manila (Philippines)
Intercare Alabang,Clinic,,,,14.425721,121.022693,Manila (Philippines)
Isidro Mendoza Health Center,Clinic,+63 2 8563 3273,,"2158 Jesus Street, Manila, 1011",14.592453,121.004561,Manila (Philippines)
JAPANESE Clinic,Clinic,,,,14.561311,121.017617,Manila (Philippines)
JD Jack Medical Clinic,Clinic,,,20th Avenue,14.625832,121.060851,Manila (Philippines)
JM Lucas Infirmary,Clinic,,,,14.637768,121.080624,Manila (Philippines)
Jacinto Medical Clinic,Clinic,,,,14.637772,120.981252,Manila (Philippines)
"Javier's Ears, Nose, Throat",Clinic,,,,14.5818,121.012461,Manila (Philippines)
John Paul Medical Clinic,Clinic,,,Tirad Pass Street,14.659704,120.99177,Manila (Philippines)
Joson Medical Clinic,Clinic,,,"Dr. Sixto Antonio Avenue, Pasig",14.57876,121.081881,Manila (Philippines)
Juan R. Sanchez Health Center,Clinic,,,"Pateros, 1621",14.545248,121.069522,Manila (Philippines)
Just-E,Clinic,,,69 Russet Street,14.642776,121.117253,Manila (Philippines)
K Line Laboratory,Clinic,+ 63 2 5562956 loc. 405,,,14.531391,120.988309,Manila (Philippines)
KFP Renal Center,Clinic,,,"President Quezon Street, Pasig",14.592026,121.095304,Manila (Philippines)
Kaiser Medical Center,Clinic,,,Chino Roces Avenue,14.55769,121.013563,Manila (Philippines)
Kalayaan Health Center,Clinic,,,,14.615539,121.017678,Manila (Philippines)
Kamiseta Skin Clinic,Clinic,,,,14.63511,121.029616,Manila (Philippines)
Kamuning Health Center,Clinic,,,,14.625839,121.036883,Manila (Philippines)
Keralty MegaClinic,Clinic,,,,14.584938,121.056695,Manila (Philippines)
Kidney Clinic - Dr De Guzman,Clinic,,,,14.627507,121.097097,Manila (Philippines)
Klinika Novaliches,Clinic,,,"Quirino Highway, Quezon City",14.720821,121.039456,Manila (Philippines)
Klinika Pasig,Clinic,,,Dr. Garcia Street,14.558754,121.073391,Manila (Philippines)
Klinika sa Bantayog,Clinic,,,,14.644688,121.039005,Manila (Philippines)
L'Aesthetics,Clinic,,,,14.71839,121.054208,Manila (Philippines)
LRB Medical & Maternity Clinic,Clinic,+63276186251,,"Captain F. S. Samano Street, Caloocan",14.765588,121.044457,Manila (Philippines)
Labao Specialist,Clinic,,,,14.54173,121.081681,Manila (Philippines)
Lake Edge South Medical Clinic,Clinic,,,,14.468384,121.056921,Manila (Philippines)
Las Pinas City Social Hygiene Clinic,Clinic,+632 88178819;+632 8006406;+632 8739145,lpc.socialhygiene@gmail.com,"Alabang-Zapote Road, Las Piñas",14.433294,121.01342,Manila (Philippines)
Las Pinas Medical Clinic,Clinic,,,"Alabang-Zapote Road, Las Pinas, 1740",14.462857,120.968951,Manila (Philippines)
Las Piñas Lying-in Center,Clinic,,,"Balikatan Street, Las Piñas",14.457115,120.994812,Manila (Philippines)
Lazarte Medical Clinic,Clinic,,,,14.48127,121.046187,Manila (Philippines)
Le Clinique,Clinic,,,,14.554168,121.045045,Manila (Philippines)
Life Change Recovery Center,Clinic,415-6529,lifechange.lcrc@gmail.com,"105 Scout Rallos Street, 1103",14.633163,121.040262,Manila (Philippines)
Likhaan,Clinic,,,,14.663148,121.040488,Manila (Philippines)
Lingunan Health Center,Clinic,,,,14.718777,120.976212,Manila (Philippines)
Lizardo Childrens Clinic,Clinic,,,"Stella Maris Main Avenue, Pasig",14.577875,121.082509,Manila (Philippines)
Lord's Grace Medical Clinic,Clinic,(02) 8511 1060,,291 J. P. Rizal Street,14.572095,121.01433,Manila (Philippines)
Loving Mother Diagnostic and Dialysis Center,Clinic,,,EDSA,14.611259,121.05448,Manila (Philippines)
Lower Bicutan Health Center,Clinic,,,Manuel L. Quezon Avenue,14.489612,121.060968,Manila (Philippines)
Lusung Optical,Clinic,,,,14.696778,121.08863,Manila (Philippines)
MIA Health Center,Clinic,,,,14.514286,121.003554,Manila (Philippines)
MMC Medical and Diagnostic Center,Clinic,,,"4F GHR Remedios Street, 1000",14.571559,120.988463,Manila (Philippines)
Madrid Polyclinic & Diagnostic Center Inc.,Clinic,,,,14.613476,121.062607,Manila (Philippines)
Madrid Polyclinic & Diagnostic Center Inc.,Clinic,,,,14.613348,121.062405,Manila (Philippines)
Majito Emergency Clinic,Clinic,,,"Gloria Diaz Street, Las Piñas, 1740",14.441555,120.981271,Manila (Philippines)
Makati Ilchim Oriental Medical Clinic,Clinic,,,Gloria Street,14.562755,121.032222,Manila (Philippines)
Makati Social Hygiene Clinic,Clinic,+63 2 8870 1615,,Morong Street,14.570429,121.027257,Manila (Philippines)
Malabon Doctors Specialty and Diagnostic Center,Clinic,,,"105 P. Aquino Avenue, 1470",14.659717,120.959442,Manila (Philippines)
Malabon Polymedic Clinic,Clinic,,,Governor Wenceslao Pascual Avenue,14.668625,120.96752,Manila (Philippines)
Malabon Social Hygiene Clinic,Clinic,,malabon.shc@yahoo.com,,14.655142,120.962341,Manila (Philippines)
Malanday Health Center,Clinic,,,"Bulelak Street, Marikina, 1805",14.650901,121.096605,Manila (Philippines)
Malibay Health Center,Clinic,,,,14.533981,121.009326,Manila (Philippines)
Manangan Medical Clinic,Clinic,,,,14.71764,120.956689,Manila (Philippines)
Mandaluyong City Medical Center Annex - Maternity and Child Section,Clinic,,,"F. Martinez Avenue, Mandaluyong, 1550",14.582791,121.036387,Manila (Philippines)
Manggahan Super Health Center,Clinic,,,East Bank Road,14.597939,121.091563,Manila (Philippines)
Manuyo Uno Health Center,Clinic,,,,14.48301,120.984704,Manila (Philippines)
Marcelo Delos Santos Child and Adult Clinic,Clinic,,,,14.661047,121.034108,Manila (Philippines)
Maria Clara Health Center and Lying-in Clinic,Clinic,,,,14.618078,120.990769,Manila (Philippines)
Maria Regina Polyclinic,Clinic,,,Marikina,14.635616,121.094639,Manila (Philippines)
Marikina City Health Center,Clinic,,,J. Molina Street,14.648277,121.104137,Manila (Philippines)
Marikina City Healthy Center,Clinic,,,Marikina,14.636298,121.097665,Manila (Philippines)
Marikina Molecular Diagnostic Laboratory,Clinic,,,Bayan-Bayanan Avenue,14.650859,121.110439,Manila (Philippines)
Marine medical and laboratory clinic inc.,Clinic,,,,14.56834,120.993462,Manila (Philippines)
Marzan Health Care Clinic,Clinic,,,V. Luna Road,14.637306,121.050235,Manila (Philippines)
Masabong Health Center,Clinic,,,Malac Street,14.640771,121.011515,Manila (Philippines)
Masalunga Clinic,Clinic,,,,14.661793,120.994572,Manila (Philippines)
Mauway Health Center,Clinic,,,"Nueve de Pebrero Street, Mandaluyong",14.579112,121.04409,Manila (Philippines)
Maxicare Primary Care Clinic,Clinic,+63277987788; +63277987739,pcc.vvsoliven@maxicare.com.ph,EDSA,14.605221,121.057205,Manila (Philippines)
Maxicare Primary Care Clinic,Clinic,+63285821900;+63277987798,,,14.554844,121.044871,Manila (Philippines)
Mayor Moises R. Flores Health Center,Clinic,,,"Pateros, 1623",14.547289,121.06594,Manila (Philippines)
Mdi,Clinic,,,,14.483277,121.048393,Manila (Philippines)
Med Option,Clinic,,,,14.479375,120.980165,Manila (Philippines)
Medcare Multispecialty Clinic,Clinic,,,,14.39982,121.0404,Manila (Philippines)
MediCard Clinic,Clinic,+63 908 886 4723,,"145 Dela Rosa Street, Makati",14.558543,121.014678,Manila (Philippines)
MediCard Lifestyle Center,Clinic,,,"51 Paseo de Roxas, Makati",14.559293,121.030614,Manila (Philippines)
Medical Arts Building,Clinic,,,,14.634808,121.104391,Manila (Philippines)
"Medical Trends, Inc.",Clinic,,,Dr. A. Santos Avenue,14.455402,121.04106,Manila (Philippines)
Medical clinic,Clinic,,,,14.515484,121.071743,Manila (Philippines)
Medicard,Clinic,,,"EDSA, Quezon City",14.641845,121.039663,Manila (Philippines)
Medisense Diagnostic Clinic,Clinic,,,Churucca Street,14.581476,120.980926,Manila (Philippines)
Medline Dialysis Center,Clinic,,,,14.67741,121.031783,Manila (Philippines)
Megason Diagnostic Clinic,Clinic,,,,14.419316,121.047499,Manila (Philippines)
Merci Hub,Clinic,,,2151 Pointe C. Raymundo Avenue,14.589546,121.089014,Manila (Philippines)
Merita Medical Center,Clinic,,,,14.570876,120.991664,Manila (Philippines)
Metro-Avenue Medical Clinic,Clinic,,,,14.674663,121.047113,Manila (Philippines)
Minute Healcare,Clinic,,,,14.63813,121.036269,Manila (Philippines)
Miraculous Mother Medical Clinic,Clinic,,,Rizal Avenue,14.615429,120.982814,Manila (Philippines)
Molave Medical & Maternity Clinic,Clinic,,,,14.6296,121.067456,Manila (Philippines)
Montecino Clinic,Clinic,,,,14.615493,121.057828,Manila (Philippines)
Moonwalk Health Center,Clinic,,,,14.423323,120.995975,Manila (Philippines)
Moonwalk Health Center,Clinic,,,,14.491555,121.014348,Manila (Philippines)
Morales Childrens Clinic,Clinic,,,"Stella Maris Main Avenue, Pasig",14.578005,121.082356,Manila (Philippines)
Morato Medical Group,Clinic,,,E. Rodriguez Jr. Avenue,14.602571,121.078902,Manila (Philippines)
Mother Teresa Parish Clinic,Clinic,,,"Don Jesus Boulevard, Muntinlupa City, 1771",14.434795,121.042119,Manila (Philippines)
Mother and Child Clinic,Clinic,,,M. H. del Pilar Street,14.662195,120.969443,Manila (Philippines)
Mothercare Women’s Clinic,Clinic,,,,14.614086,120.99827,Manila (Philippines)
Mt. Carmel Maternity And Children's Clinic,Clinic,,,Manila,14.62762,120.984481,Manila (Philippines)
Muntinlupa Social Hygiene Clinic,Clinic,+632 8622460;+632 8623965;+632 8624012;+632 8610689,,"National Road, Muntinlupa",14.395943,121.044746,Manila (Philippines)
Murphy Super Health Center,Clinic,,,"18th Avenue, Quezon City",14.615724,121.063214,Manila (Philippines)
MyHealth Clinic,Clinic,,,Internal Avenue,14.580694,121.055962,Manila (Philippines)
NGC Health Center,Clinic,,,MRB Compound,14.696563,121.079346,Manila (Philippines)
NSPI Dialysis Center,Clinic,,,"146 West Avenue, Quezon City",14.652716,121.029599,Manila (Philippines)
Namayan Barangay Health Center,Clinic,,,,14.58021,121.019205,Manila (Philippines)
Natureborne OBGYN Clinic,Clinic,,,,14.679679,121.080839,Manila (Philippines)
Navotas Medical and Wellness Center,Clinic,,,M. Naval Street,14.662359,120.945742,Manila (Philippines)
Nemis Medical Clinic,Clinic,,,Kaliraya Street,14.625144,121.017189,Manila (Philippines)
Nephro Group of Dialysis Center,Clinic,,,"146 West Avenue, Quezon City",14.652808,121.029612,Manila (Philippines)
Nephrology Center of Las Pinas Dialysis Inc.,Clinic,,,"440 Alabang-Zapote Road, Las Piñas",14.436081,121.007738,Manila (Philippines)
New Lower Bicutan Health Center,Clinic,,,Taguig,14.498888,121.063045,Manila (Philippines)
New World BF Parañaque,Clinic,,,,14.446976,121.029314,Manila (Philippines)
New World Diagnostics,Clinic,,,"Taft Avenue, Manila, 1000",14.578679,120.987053,Manila (Philippines)
New World Diagnostics,Clinic,,,Sunrise Drive,14.541143,120.984589,Manila (Philippines)
New World Diagnostics,Clinic,,,D. Tuazon Street,14.634764,120.997128,Manila (Philippines)
Nisce Skin N Face,Clinic,,,,14.432901,121.010494,Manila (Philippines)
Nora Birthing Clinic,Clinic,,,,14.776518,121.058517,Manila (Philippines)
Nordic Medical Clinic Manila,Clinic,,,"470 San Andres Street, Manila, 1004",14.568577,120.984772,Manila (Philippines)
North Daang Hari Health Center,Clinic,,,,14.486829,121.046974,Manila (Philippines)
Novamedica,Clinic,,,Quirino Highway,14.721693,121.039711,Manila (Philippines)
Novus-Renal Care,Clinic,,,"1 Cordillera Street, Mandaluyong, 1550",14.57828,121.050166,Manila (Philippines)
Nuestra Señora de Buensuceso Polyclinic and Diagnostic Center,Clinic,,,"M. H. del Pilar Street, Parañaque, 1700",14.50112,120.992571,Manila (Philippines)
One Smile City,Clinic,,,,14.737128,121.059967,Manila (Philippines)
Optic Hall,Clinic,,,,14.733455,121.01569,Manila (Philippines)
OurHealth Medical and Diagnostic Clinic,Clinic,,,,14.58222,120.983749,Manila (Philippines)
P. Bernardo Health Center,Clinic,,,"Ermin Garcia Street, Quezon City, 1111",14.627999,121.046654,Manila (Philippines)
PAL Medical Office,Clinic,,,,14.528027,121.006465,Manila (Philippines)
PBM Doctors Clinic,Clinic,,,365 El Grande Avenue,14.461385,121.008069,Manila (Philippines)
PITX Clinic,Clinic,,,,14.508789,120.990854,Manila (Philippines)
Palatiw Barangay Health Clinic 2,Clinic,,,,14.563272,121.090356,Manila (Philippines)
Palomar Health Center,Clinic,,,"Claro M. Recto Avenue, Manila",14.605933,120.975783,Manila (Philippines)
Pamplona I Health Center,Clinic,,,"E. Trinidad Street, Las Piñas",14.458459,120.970006,Manila (Philippines)
Pamplona II Health Center,Clinic,,,,14.449507,120.974851,Manila (Philippines)
Paranaque Social Hygiene Clinic,Clinic,+63 2 8826 8219;+632 8826 8195,shc.paranaque@gmail.com,"San Antonio Avenue, Parañaque",14.470589,121.02238,Manila (Philippines)
Pasig Base,Clinic,,,2 A. Z. Avis Sr.,14.562044,121.071139,Manila (Philippines)
Paso De Blas Lying In Clinic,Clinic,,,Paso de Blas Road,14.707872,120.992434,Manila (Philippines)
Payatas Super Health Center,Clinic,,,"Diamond Hills Street, Quezon City",14.709886,121.096689,Manila (Philippines)
Payatas-B Health Center,Clinic,,,,14.716258,121.101179,Manila (Philippines)
Pediatric Clinic,Clinic,09173535275,,Brixton Street,14.573374,121.058205,Manila (Philippines)
Pembo Health Center,Clinic,,,"3 Santan Street, Taguig",14.543586,121.06032,Manila (Philippines)
Peregrine Eye and Laser Institute,Clinic,,,"50 Jupiter Street, Makati",14.560671,121.030931,Manila (Philippines)
Pet Mobile,Clinic,,,,14.46063,121.007993,Manila (Philippines)
Philippine Band of Mercy,Clinic,,,East Avenue,14.639134,121.047093,Manila (Philippines)
Philippine Gamma Knife Center,Clinic,+632 7259254,info@gammaknife.com.ph,,14.597248,121.046388,Manila (Philippines)
Philippine Kidney Dialysis Foundation,Clinic,,,"79 Scout Gandia Street, Quezon City, 1103",14.632089,121.033325,Manila (Philippines)
Philippine Orthopedic Institute,Clinic,+6328921541,,141 Dela Rosa Street,14.558623,121.015121,Manila (Philippines)
Physician Surgeon,Clinic,,,,14.47989,121.060986,Manila (Philippines)
Pimentel Medical Clinic,Clinic,(02) 8890 3130,,Pasong Tirad Street,14.572387,121.013749,Manila (Philippines)
Polyhealth,Clinic,,,General Luna Street,14.667226,120.947883,Manila (Philippines)
Ponce Medical Clinic,Clinic,,,,14.470903,121.057888,Manila (Philippines)
Primary Care Clinic,Clinic,,,,14.525773,121.055876,Manila (Philippines)
Prime Care,Clinic,,,,14.485554,121.042694,Manila (Philippines)
Prime Care,Clinic,,,,14.766737,121.044257,Manila (Philippines)
Prime Care - Dialysis Care,Clinic,,,,14.766738,121.044227,Manila (Philippines)
Pro Star Specialty Clinic,Clinic,,,,14.770204,121.077573,Manila (Philippines)
Project 7 Social Hygiene Clinic,Clinic,,,"29 Bansalangin Street, Quezon City",14.654499,121.023385,Manila (Philippines)
Putatan Health Center,Clinic,,,,14.394853,121.04982,Manila (Philippines)
QualiMed,Clinic,,,"EDSA, Makati",14.549686,121.029457,Manila (Philippines)
Quintin de Borja Health Center,Clinic,,,,14.542931,121.065678,Manila (Philippines)
Quinto Polyclinic,Clinic,+63 2 282 2713,,"# 37 Naval Street, Malabon City, 1471",14.674938,120.942524,Manila (Philippines)
R.E. Mallari Clinical Diagnostic Laboratory,Clinic,+63 2776855,remallariclinicaldiagnosticlab@gmail.com,"Rizal Avenue Extension, 1400",14.656372,120.984125,Manila (Philippines)
RITM Satellite Clinic,Clinic,,,"1850 Leon Guinto Street, Manila",14.573375,120.991005,Manila (Philippines)
RNV Ob-Gyne Clinic,Clinic,,,,14.618888,120.993593,Manila (Philippines)
RSV Polyclinic & Diagnostic Center,Clinic,,,,14.674993,121.046019,Manila (Philippines)
RTCC Medical Clinic,Clinic,,,,14.645472,121.052447,Manila (Philippines)
RVEC Clinics & Surgicenter,Clinic,,,Mayor Gil Fernando Avenue,14.63761,121.101858,Manila (Philippines)
RX Medica,Clinic,,,"Panghulo Road, Malabon, 1470",14.686831,120.956079,Manila (Philippines)
Racer HQ,Clinic,,,,14.622632,121.096498,Manila (Philippines)
Rebmann 88,Clinic,,,,14.633897,121.038452,Manila (Philippines)
Recina Derm,Clinic,,,,14.665509,121.021713,Manila (Philippines)
Red Cresent,Clinic,,,,14.671408,120.941416,Manila (Philippines)
Refinity Dermatology And Laser Clinic,Clinic,,,"United Street, Pasig, 1603",14.573407,121.059139,Manila (Philippines)
Renalink Nephrology Center,Clinic,,,Governor Wenceslao Pascual Avenue,14.670223,120.971435,Manila (Philippines)
Richstone Surgicare,Clinic,,,,14.626469,121.015268,Manila (Philippines)
Rockford Clinic,Clinic,,,1406 Masangkay Street,14.609504,120.979481,Manila (Philippines)
Rosario Reyes Health Center,Clinic,,,"627 San Andres Street, Manila, 1004",14.569582,120.987802,Manila (Philippines)
Rosario Specialist Clinic,Clinic,,,Pasig,14.59005,121.084831,Manila (Philippines)
Rosario Super Health Center,Clinic,,,Dr. Sixto Antonio Avenue,14.586722,121.084302,Manila (Philippines)
Sabli Health Clinic,Clinic,,,,14.487182,121.046857,Manila (Philippines)
Sacred Angel,Clinic,,,"Quirino Highway, Quezon City, 1118",14.735325,121.068678,Manila (Philippines)
Safeway Diagnostics and Medical Clinic Inc.,Clinic,,,Magsaysay Boulevard,14.600984,121.000715,Manila (Philippines)
Saint Camillus Medical & Maternity Clinic,Clinic,,,,14.51201,121.060869,Manila (Philippines)
Saint Dymphna Medical Clinic,Clinic,,,F. B. Harrison Street,14.546635,120.993869,Manila (Philippines)
Saint Theresa Medical Clinic,Clinic,,,,14.463519,121.022587,Manila (Philippines)
Saint Vianny Clinic,Clinic,,,,14.689554,120.97728,Manila (Philippines)
Salandanan Pediatric Clinic,Clinic,,,"A. V. Cruz Street, Pasig",14.550077,121.081571,Manila (Philippines)
San Isidro Health Center,Clinic,,,,14.471164,121.007194,Manila (Philippines)
San Joaquin DOTS Center,Clinic,,,Elisco Road,14.5511,121.076178,Manila (Philippines)
San Jose Barangay Health Center,Clinic,,,,14.580275,121.029399,Manila (Philippines)
San Jose Clinic,Clinic,,,,14.474295,120.998346,Manila (Philippines)
San Juan City Health Office Ⅰ,Clinic,,,,14.603721,121.027204,Manila (Philippines)
San Juan City Social Hygiene Clinic,Clinic,+632 6421262;+63926 7542917,,"F. Manalo Street, San Juan, 1500",14.598376,121.024917,Manila (Philippines)
San Roque Barangay Health Center,Clinic,,,"M. A. Roxas Street, Marikina",14.623751,121.097056,Manila (Philippines)
San Roque Medical Clinic,Clinic,,,"Montillano Street, Muntinlupa, 1770",14.419293,121.047096,Manila (Philippines)
Santa Ana Health Center,Clinic,,,J. P. Rizal Street,14.526696,121.074656,Manila (Philippines)
Santa Elena Health Center,Clinic,,,Marikina,14.632941,121.097582,Manila (Philippines)
"Santa Faustina Lying-in, Medical, and Diagnostic Center Co.",Clinic,,,173 M.H. del Pilar Street,14.692759,120.955117,Manila (Philippines)
Santo Niño Health Center,Clinic,,,,14.440107,121.043149,Manila (Philippines)
Santo Tomas Health Center,Clinic,,,L. B. Jose Street,14.56438,121.080596,Manila (Philippines)
Sanver Medical Clinic,Clinic,,,,14.659308,120.97076,Manila (Philippines)
Sauyo Health Center,Clinic,,,,14.687804,121.037716,Manila (Philippines)
Sea Landers Diagnostic and Treatment Center,Clinic,+63 2 5309 2629,,,14.573414,120.984119,Manila (Philippines)
Shimmian,Clinic,,,,14.43304,121.010597,Manila (Philippines)
Shinagawa Lasik BGC,Clinic,,,,14.552336,121.051641,Manila (Philippines)
Silk,Clinic,,,,14.644491,121.120309,Manila (Philippines)
Silverio Health Center,Clinic,,,,14.471297,121.012221,Manila (Philippines)
Silverio Medical Clinic,Clinic,,,,14.407449,121.046696,Manila (Philippines)
Singapore Diagnostics,Clinic,,,,14.557595,121.017187,Manila (Philippines)
Sitio De Asis Clinic,Clinic,,,,14.481965,121.046087,Manila (Philippines)
Sitio De Asis Medical & Diagnostic Laboratory,Clinic,,,,14.482315,121.045986,Manila (Philippines)
Sitio Maligaya Health Center,Clinic,,,,14.524968,120.998373,Manila (Philippines)
Skin 101,Clinic,,,,14.608664,121.070775,Manila (Philippines)
Skin Optima,Clinic,,,"Scout Rallos Street, Quezon City, 1103",14.633434,121.038501,Manila (Philippines)
Skin Station,Clinic,+63 2410279,,,14.597197,120.976533,Manila (Philippines)
Skintelligence Dermatology,Clinic,,,,14.580794,121.010123,Manila (Philippines)
Smile Savers Dental Clinic,Clinic,,,425 M. de la Fuente Street,14.606074,120.999374,Manila (Philippines)
Smileglow,Clinic,,,,14.644202,121.117341,Manila (Philippines)
Soledad and Macapugay Pediatric Clinic,Clinic,,,San Diego Street,14.655186,120.986132,Manila (Philippines)
Specialist Care,Clinic,,,,14.641917,121.110952,Manila (Philippines)
St. Anne Orthopedic,Clinic,,,,14.580782,121.013233,Manila (Philippines)
St. Camillus Polyclinic,Clinic,,,Archimedes Street,14.568619,121.008357,Manila (Philippines)
St. Cecilia Polyclinic,Clinic,+63 2 526 2643;+63 2 526 2621,stceciliapolyclinic@hotmail.com,"A. Mabini Street, Manila, 1000",14.57907,120.980478,Manila (Philippines)
St. Ignatius De Loyola Health Care Services,Clinic,,,Shoe Avenue,14.636415,121.097116,Manila (Philippines)
St. John of God,Clinic,,,Manila,14.598959,120.987938,Manila (Philippines)
St. Jude Medical Clinic and Diagnostic Center,Clinic,,,M. H. del Pilar Street,14.668132,120.965504,Manila (Philippines)
St. Luke's Medical Center Extension Clinic,Clinic,,,"177 Jorge Bocobo Street, Manila",14.579147,120.981847,Manila (Philippines)
"St. Martin Polyclinic, Inc.",Clinic,,,,14.578104,120.987951,Manila (Philippines)
St. Martin Polyclinic. Inc,Clinic,,,,14.578103,120.988055,Manila (Philippines)
St. Peter's Rock Family Medical Polyclinic,Clinic,,,,14.757148,121.056285,Manila (Philippines)
St. Rita Family Clinic,Clinic,,,,14.614625,121.061894,Manila (Philippines)
St. Stamford Clinic,Clinic,,,"6762 Ayala Avenue, Makati, 1226",14.555924,121.021989,Manila (Philippines)
St.Peter-Paul Medical Clinic,Clinic,,,"1182 Grey Street, 1004",14.579277,120.981319,Manila (Philippines)
Sto. Domingo Diagnostic and Medical Center Corp.,Clinic,+632 3818435; +632 7408362,,,14.627379,121.011972,Manila (Philippines)
Sumilang Super Health Center,Clinic,,,,14.559157,121.073212,Manila (Philippines)
Sumilang Super Health Center,Clinic,,,Dr. Garcia Street,14.55881,121.073258,Manila (Philippines)
Sunriser Clinic,Clinic,,,,14.728727,121.011032,Manila (Philippines)
Supercare Medical Services,Clinic,,,L. P. Leviste Street,14.560853,121.018824,Manila (Philippines)
SureMom OB-Gyn,Clinic,,,,14.772359,121.077762,Manila (Philippines)
TB DOTS Clinic,Clinic,,,Mandaluyong,14.57884,121.041948,Manila (Philippines)
TLC Ob-Gyn & Medical Clinic,Clinic,,,,14.620492,120.992051,Manila (Philippines)
TMS dialysis center,Clinic,,,,14.588269,121.043675,Manila (Philippines)
Tala Animal Bite Clinic,Clinic,,,,14.766945,121.063482,Manila (Philippines)
Talon Dos Health Center,Clinic,,,,14.440161,120.991594,Manila (Philippines)
Tambo Health Center,Clinic,,,,14.515407,120.996143,Manila (Philippines)
Teknomed,Clinic,,,E. Rodriguez Sr. Avenue,14.624549,121.041206,Manila (Philippines)
Terencio Medical Clinic,Clinic,,,J. P. Rizal Street,14.638081,120.974386,Manila (Philippines)
The Aivee Clinic,Clinic,,,"Filinvest Avenue, Muntinlupa",14.419017,121.034571,Manila (Philippines)
The Lord's Grace Clinic,Clinic,,,,14.550958,120.985016,Manila (Philippines)
The Medical City,Clinic,,,,14.573947,121.048906,Manila (Philippines)
The Medical City,Clinic,,,,14.685624,120.977499,Manila (Philippines)
The Medical City,Clinic,,,,14.604157,121.018001,Manila (Philippines)
The Medical City,Clinic,,,,14.50795,121.050814,Manila (Philippines)
The Medical City,Clinic,,,,14.587388,121.105305,Manila (Philippines)
The Medical City Clinic,Clinic,,,,14.611244,121.079687,Manila (Philippines)
The Medical City Clinic,Clinic,+6328332 4264,,EDSA,14.657215,121.020661,Manila (Philippines)
The Medical City Clinic,Clinic,,,,14.604274,121.034199,Manila (Philippines)
The Medical City Clinic,Clinic,,,Pasay,14.536567,120.981425,Manila (Philippines)
The Medical City Clinic,Clinic,+63 2 8838 3750;+63 2 8838 0008,,"EDSA, Makati City",14.541961,121.018225,Manila (Philippines)
The Medical City-Trinoma,Clinic,,,,14.654354,121.034209,Manila (Philippines)
The Queen's Clinic,Clinic,,,Zabarte Road,14.750586,121.04486,Manila (Philippines)
The Zen Insitute Medical Spa,Clinic,,,"69 Scout Rallos Street, Quezon City",14.633956,121.036142,Manila (Philippines)
Three Kings Diagnostic Clinic,Clinic,,,,14.64932,120.973037,Manila (Philippines)
Tokyo Healthlink,Clinic,,,"2247 Chino Roces Avenue, Makati, 1231",14.543754,121.017312,Manila (Philippines)
Tomatis,Clinic,,,,14.553071,121.043729,Manila (Philippines)
Tongdetang Medical Laboratory Medical Center,Clinic,,,,14.535101,120.995082,Manila (Philippines)
TopChoice Medical Clinic,Clinic,,,,14.605585,121.084105,Manila (Philippines)
Topmed Diagnostics and Animal Bite Center,Clinic,,,,14.646263,121.052864,Manila (Philippines)
Transglobal Medical Clinic,Clinic,,,Sampaloc Street,14.565367,121.008707,Manila (Philippines)
Tres Pemanah,Clinic,,,Quezon City,14.64992,121.074708,Manila (Philippines)
Tuktukan Health Center,Clinic,,,Taguig City,14.52836,121.071733,Manila (Philippines)
Tumana Health Center & Lying-in Clinic,Clinic,+63 029431286,,Bagong Farmers Avenue I,14.653432,121.102582,Manila (Philippines)
UP Diliman Health Center,Clinic,+632 8426 9779,,Carlos P. Garcia Avenue,14.647691,121.065275,Manila (Philippines)
Unlab Medical Clinic,Clinic,+63 2 8400 5129; +63 2 5310 5208,,"876 G. Apacible Street, Manila, 1000",14.57887,120.987358,Manila (Philippines)
Urology Center of the Philippines Inc.,Clinic,,,"Maginoo Street, Quezon City, 1100",14.642072,121.053591,Manila (Philippines)
V. Tongco Medical and Diagnostic Clinic,Clinic,,,C. Arellano Street,14.671335,120.944006,Manila (Philippines)
VDerma Clinic,Clinic,,,,14.644977,121.061078,Manila (Philippines)
Venancio T. Campued Medical Clinic,Clinic,,,,14.676866,121.033804,Manila (Philippines)
Vizcarra Diagnostic Center,Clinic,,,,14.579679,120.97981,Manila (Philippines)
Water Cress,Clinic,,,,14.603106,121.033417,Manila (Philippines)
Well Family Clinic,Clinic,,,147 Countryside Avenue,14.585137,121.101353,Manila (Philippines)
Wenceslao dela faz health center,Clinic,,,,14.666742,121.057629,Manila (Philippines)
Westmed Diagnostic Clinic,Clinic,,,"West Avenue, Quezon City",14.653576,121.029382,Manila (Philippines)
Westview Specialty Clinic,Clinic,,,,14.700038,121.066144,Manila (Philippines)
"Windsor International Maritime Clinic, Inc.",Clinic,+63 2 8521 9543,,"General Luna Street, Manila, 1002",14.59049,120.973947,Manila (Philippines)
Women's Grace Maternity Clinic & Diagnostic Center,Clinic,,,"Jose P. Rizal Street, Marikina",14.635199,121.09445,Manila (Philippines)
Wound Algorithm Polyclinic Center,Clinic,+63 2 512 1495,,,14.418294,121.04329,Manila (Philippines)
Xanderm,Clinic,,,,14.575314,121.047562,Manila (Philippines)
Zapote Health Center,Clinic,,,,14.465437,120.968431,Manila (Philippines)
Zapote Health Center,Clinic,,,,14.464438,120.976759,Manila (Philippines)
carepoint,Clinic,,,United Nations Avenue,14.579885,120.979925,Manila (Philippines)
health Clinic,Clinic,,,,14.618513,121.060455,Manila (Philippines)
mata ng buhay,Clinic,,,,14.705982,121.052868,Manila (Philippines)
skinhouse,Clinic,,,,14.630847,120.995657,Manila (Philippines)
A. R. Bautista Children And General Hospital,Hospital,,,"Kalookan, 1400",14.7303,121.043441,Manila (Philippines)
A. Zarate General Hospital,Hospital,,,,14.468683,120.980532,Manila (Philippines)
AMOSUP Seamen's Hospital,Hospital,,,"Cabildo Street, Manila",14.58748,120.97764,Manila (Philippines)
Acebedo General Hospital,Hospital,,,"General Luis Street, Valenzuela, 1440",14.718803,121.00515,Manila (Philippines)
Adventist Medical Center Manila,Hospital,+632 8525-9192 to 98,info@amcmanila.org,"1945 Donada Street, Pasay, 1300",14.555996,120.995281,Manila (Philippines)
Aesthetic Avenue Medical Clinic,Hospital,,,"BF Resort Drive, Las Piñas",14.442217,120.991616,Manila (Philippines)
Air Force General Hospital,Hospital,,,"Pasay, 1309",14.516912,121.019923,Manila (Philippines)
Alabang Medical Center,Hospital,(02)7750275,alabangmedicalcenter8@yahoo.com,"Alabang-Zapote Road, Muntinlupa",14.427765,121.024479,Manila (Philippines)
Alabang Medical Clinic,Hospital,,,,14.391035,121.044319,Manila (Philippines)
Alabang Medical Clinic,Hospital,,,"Alabang-Zapote Road, Las Piñas, 1740, PH",14.442882,120.996977,Manila (Philippines)
Alabang Medical Clinic,Hospital,+63 0288611187,,"A. Bunye Street, Muntinlupa, 1781",14.419632,121.050899,Manila (Philippines)
Alfonso Clinic,Hospital,,,"M. Suarez Avenue, Pasig",14.568195,121.086105,Manila (Philippines)
Alfonso Specialist Hospital,Hospital,,,"185 Doctor Sixto Antonio Avenue, Pasig",14.59011,121.084648,Manila (Philippines)
Allied Care Experts Medical Center,Hospital,,,,14.544057,121.065302,Manila (Philippines)
Allied Care Experts Medical Center Valenzuela,Hospital,366-0000;366-0001;366-0002;366-0003;366-0004;366-0005,info@acemcvalenzuela.com,"548 MacArthur Highway, Valenzuela, 1444",14.715255,120.957334,Manila (Philippines)
Amang Rodriguez Memorial Medical Center,Hospital,,,"Sumulong Highway, Marikina",14.636102,121.098444,Manila (Philippines)
Ambulatory CPU Lingap Bata – UST Medical Social Service Dapartment,Hospital,,,"España Boulevard, Manila",14.611503,120.990071,Manila (Philippines)
Amisola Maternity Hospital,Hospital,,,Manila,14.632853,120.978105,Manila (Philippines)
Ann Francis Mother & Child Hospital,Hospital,,,Quirino Highway,14.694371,121.031257,Manila (Philippines)
Armed Forces of the Philippines Medical Center,Hospital,,,"V. Luna Road, Quezon City, 1100",14.634832,121.052001,Manila (Philippines)
Asian Hospital and Medical Center,Hospital,+63 2 8771 9000; +63 2 8876 5739,,"2205 Civic Drive, Muntinlupa, 1781",14.413205,121.043612,Manila (Philippines)
BF Maternity Clinic,Hospital,,,"BF Resort Drive, Las Piñas",14.442296,120.991586,Manila (Philippines)
Banaag Dental Clinic,Hospital,,,,14.677015,120.942472,Manila (Philippines)
Barangay 174 Health Center and Lying In,Hospital,,,,14.762644,121.047746,Manila (Philippines)
Beato-Cauilan Hospital,Hospital,,,"National Road, Muntinlupa, 1773",14.37098,121.049366,Manila (Philippines)
Bermudez Polymedic Hospital,Hospital,,,"Malaria Road, Caloocan",14.770095,121.07828,Manila (Philippines)
Bernardino General Hospital,Hospital,,,"Quirino Highway, Quezon City, 1116",14.700195,121.03485,Manila (Philippines)
Bernardino General Hospital 2,Hospital,+63289398050 ;+63289610328,,,14.740153,121.046643,Manila (Philippines)
Bicutan Medican Center,Hospital,,,,14.498754,121.063848,Manila (Philippines)
Bignay Health Station,Hospital,,,,14.747888,120.996787,Manila (Philippines)
CB Dialysis Center,Hospital,,,,14.660274,120.951334,Manila (Philippines)
CGEA Station Hospital,Hospital,,,Segundo Avenue,14.612393,121.064116,Manila (Philippines)
CSM Dental Clinic,Hospital,,,"Rizal Avenue Extension, Malabon, 1470",14.658747,120.952532,Manila (Philippines)
Cabinte Maternity & Children's Hospital,Hospital,,,"Marcos Alvarez Avenue, Las Piñas",14.42416,120.999646,Manila (Philippines)
Calalang General Hospital,Hospital,,,"MacArthur Highway, Valenzuela",14.672686,120.982533,Manila (Philippines)
Caloocan City Medical Center South,Hospital,,,,14.648341,120.973598,Manila (Philippines)
Caloocan City North Medical Center,Hospital,,,,14.756152,121.050205,Manila (Philippines)
Camarin Doctors Hospital,Hospital,+63960 600 2967,,"1 Camarin Road, Caloocan",14.753514,121.04012,Manila (Philippines)
Camp Panopio Hospital,Hospital,,,P. Tuazon Boulevard,14.615668,121.05179,Manila (Philippines)
Capitol Medical Center,Hospital,,,,14.634097,121.02252,Manila (Philippines)
Cardinal Santos Medical Center,Hospital,,,"10 Wilson Street, San Juan",14.597432,121.045961,Manila (Philippines)
Casaul General Hospital,Hospital,,,,14.679386,121.020596,Manila (Philippines)
Casual General Hospital,Hospital,,,"Quirino Highway, Quezon City, 1118",14.737001,121.070637,Manila (Philippines)
Chinese General Hospital and Medical Center,Hospital,,,"Blumentritt Road, Manila",14.626064,120.987899,Manila (Philippines)
Christ the King Medical Center,Hospital,,,"130 Alabang-Zapote Road, Las Piñas",14.459049,120.969995,Manila (Philippines)
"Commcare, Inc.",Hospital,,,"45 Montclair Street, Parañaque",14.501349,121.023788,Manila (Philippines)
Commonwealth Hospital and Medical Center,Hospital,,,Regalado Highway,14.7314,121.060641,Manila (Philippines)
Cruz-Dalida Hospital,Hospital,+63284174080 ;+63283521849,cruz_dalidahospital@yahoo.com,"F. Salvador Avenue, Quezon City, 1117",14.723293,121.044023,Manila (Philippines)
Cruz-Rabe Hospital,Hospital,,,Taguig City,14.529332,121.070722,Manila (Philippines)
De Guzman Clinic,Hospital,,,"Marikina, 1809",14.657041,121.106694,Manila (Philippines)
De Los Santos Medical Center,Hospital,+63 2 7889 35762,customercare@dlsmc.ph,"201 E. Rodriguez Sr. Avenue, Quezon City, 1113",14.620208,121.017512,Manila (Philippines)
De Ocampo Memorial Medical Center,Hospital,,,Manila,14.599831,120.999627,Manila (Philippines)
Diliman Doctors Hospital,Hospital,+6328836900,,"251 Commonwealth Avenue, Quezon City",14.668385,121.076095,Manila (Philippines)
Divine Heart,Hospital,,,"General Luis Street, Quezon City",14.722055,121.035854,Manila (Philippines)
Doctor J. Sabili General Hospital,Hospital,,,,14.48889,121.057822,Manila (Philippines)
Doctor Jose N. Rodriguez Memorial Hospital & Sanitarium,Hospital,+63 920 982 4758;+63 925 354 7547,,"Saint Joseph Avenue, Calocan",14.766709,121.065655,Manila (Philippines)
Dr. Jesus C. Delgado Memorial Hospital,Hospital,,,"Kamuning Road, Quezon City, 1103",14.627783,121.034768,Manila (Philippines)
Dr. Jose Fabella Memorial Hospital,Hospital,,,,14.615685,120.980512,Manila (Philippines)
Dr. Montano G. Ramos General Hospital,Hospital,+63 289276628,,"Bukidnon Street, Quezon City, 1100",14.659386,121.023597,Manila (Philippines)
Dr. Montano G. Ramos General Hospital,Hospital,,,"141 Mindanao Avenue, Quezon City, 1100",14.670531,121.032084,Manila (Philippines)
East Avenue Medical Center,Hospital,,,"East Avenue, Quezon City, 1100",14.641912,121.047924,Manila (Philippines)
Fairview General Hospital,Hospital,,,,14.705673,121.072025,Manila (Philippines)
Fairview Polymedic Hospital,Hospital,,,"Quirino Highway, Kalookan, 1400",14.729371,121.04251,Manila (Philippines)
Far Eastern University - Nicanor Reyes Medical Foundation,Hospital,,,"Regalado Avenue, Quezon City, 1118",14.698783,121.0669,Manila (Philippines)
Fatima University Medical Center,Hospital,,,Valenzuela,14.678061,120.980462,Manila (Philippines)
Fe Del Mundo Medical Center,Hospital,,,"11 Banawe Street, Quezon City, 1113",14.620599,121.009217,Manila (Philippines)
Fort Bonifacio General Hospital,Hospital,,,Taguig,14.53098,121.047896,Manila (Philippines)
Garcia General Hospital,Hospital,,,"45 Bayan-Bayanan Avenue, Marikina, 1810",14.65122,121.110939,Manila (Philippines)
Gat Andres Bonifacio Medical Center,Hospital,+63 2 8243 8841,gabmc@manila.gov.ph,"924 Delpan Street, Manila, 1012",14.601099,120.964884,Manila (Philippines)
General Malvar Hospital,Hospital,,,Commonwealth Avenue,14.66759,121.072642,Manila (Philippines)
Golden Acres Doctors' Hospital,Hospital,,,,14.419055,120.997974,Manila (Philippines)
Healthway Cancer Care Hospital,Hospital,,,,14.502842,121.048451,Manila (Philippines)
Holylife Hospital,Hospital,,,"President Quezon Street, Pasig",14.592024,121.095774,Manila (Philippines)
Hope General Hopital,Hospital,,,29 Buenamar Street,14.7193,121.039034,Manila (Philippines)
Hospital of the Infant Jesus Medical Center,Hospital,"+632 7312771,151",info@hijmc.com,A. H. Lacson Avenue,14.614032,120.989276,Manila (Philippines)
J. P. Sioson General Hospital And Colleges,Hospital,,,"Quezon City, 1100",14.659903,121.025094,Manila (Philippines)
Javillonar Clinic and Hospital,Hospital,,,Pasig,14.565414,121.078436,Manila (Philippines)
Jesus Immaculate Concepcion Hospital,Hospital,,,"Katipunan Street, Marikina",14.638366,121.108958,Manila (Philippines)
Jose Fabella Memorial Hospital,Hospital,,,"Lope de Vega Street, Manila",14.606137,120.984233,Manila (Philippines)
Jose Fabella Memorial Hospital Annex,Hospital,,,,14.646976,121.043513,Manila (Philippines)
Jose R. Reyes Memorial Medical Center,Hospital,,,"Rizal Avenue, Manila",14.614115,120.981922,Manila (Philippines)
Justice Jose Abad Santos General Hospital,Hospital,,,"Numancia Street, Manila",14.597435,120.972014,Manila (Philippines)
King of Kings Servant Healer Medical Clinic,Hospital,,,,14.433875,120.989306,Manila (Philippines)
King of Kings Servant Healer Medical Clinic,Hospital,,,"BF Resort Drive, Las Piñas",14.433871,120.989283,Manila (Philippines)
Las Piñas City Health Office,Hospital,,,,14.450187,120.982892,Manila (Philippines)
Las Piñas City Medical Center,Hospital,+63 2 8800 0825;+63 2 8800 2288;+63 2 8800 5524;+63 2 8800 5695,info@citymed.com.ph,"1314 Marcos Alvarez Avenue, Las Piñas",14.429689,121.003503,Manila (Philippines)
Las Piñas Doctors Hospital,Hospital,,,"CAA Avenue, Las Piñas",14.455619,120.993888,Manila (Philippines)
Las Piñas General Hospital,Hospital,,,"P. Diego Cera Avenue, Las Piñas, 1742",14.472054,120.974632,Manila (Philippines)
Las Piñas General Hospital & Satellite Trauma Center,Hospital,,,"P. Diego Cera Avenue, Las Piñas, 1742",14.471636,120.973808,Manila (Philippines)
Lung Center of the Philippines,Hospital,,,"Quezon Avenue, Quezon City",14.647426,121.045856,Manila (Philippines)
Main Building,Hospital,,,,14.594879,121.022561,Manila (Philippines)
Makati Life Medical Center,Hospital,,,"Malugay Street, Makati",14.56305,121.017616,Manila (Philippines)
Makati Medical Center,Hospital,+63 2 8888 8999 loc 2357,mmc@makatimed.net.ph,"Amorsolo Street, Makati, 1229",14.559284,121.014879,Manila (Philippines)
Manila Central University Hospital,Hospital,,,,14.657742,120.9871,Manila (Philippines)
Manila Central University Hospital,Hospital,,,,14.657686,120.986724,Manila (Philippines)
Manila Doctors Hospital,Hospital,+632 5247376;+632 5580888 loc. 4480;+632 5247376,info@maniladoctors.com.ph,"Kalaw Avenue, Manila",14.582003,120.982796,Manila (Philippines)
Marikina Doctors Hospital and Medical Center,Hospital,,,10 Evangelista Avenue,14.621069,121.08259,Manila (Philippines)
Marikina Valley Medical Center,Hospital,,,"Sumulong Highway, Marikina, 1800",14.634896,121.104121,Manila (Philippines)
Martinez Hospital,Hospital,,,"A. Mabini Street, Caloocan",14.638556,120.975907,Manila (Philippines)
Mary Chiles General Hospital,Hospital,,,Manila,14.603176,120.98992,Manila (Philippines)
Mary Johnston Hospital,Hospital,+632 2454021 loc 385/412,,"1221 J. Nolasco Street, Manila",14.609058,120.9662,Manila (Philippines)
Medical Center Manila,Hospital,+63 2 8523 8131,customerservice@manilamed.com.ph,"850 United Nations Avenue, Manila, 1000",14.582434,120.985461,Manila (Philippines)
Medical Center Muntinlupa,Hospital,,,"38 National Road, Muntinlupa, 1772",14.394953,121.045197,Manila (Philippines)
Medical Center Parañaque,Hospital,+63917 811 8094,,"Dr. A. Santos Avenue, Parañaque",14.458357,121.033453,Manila (Philippines)
Medical Center Taguig,Hospital,,,"Pedro Cayetano Boulevard, Taguig",14.53087,121.065396,Manila (Philippines)
Metro North Medical Center and Hospital,Hospital,,,Mindanao Avenue,14.668899,121.033649,Manila (Philippines)
Metro Pasay Hospital and Medical Center,Hospital,,,"M. dela Cruz Extension, Pasay, 1300",14.539129,121.006249,Manila (Philippines)
Metropolitan Medical Center,Hospital,,,Manila,14.609603,120.978481,Manila (Philippines)
Micah Clinic,Hospital,,,"San Marcelino Street, Manila",14.572805,120.992672,Manila (Philippines)
Mission Hospital,Hospital,,,"Ortigas Avenue Extension, Pasig",14.589917,121.097513,Manila (Philippines)
Mission Medical Plaza,Hospital,,,Ortigas Avenue Extension,14.589833,121.097979,Manila (Philippines)
Mother Regina,Hospital,,,Pasig,14.58352,121.085128,Manila (Philippines)
National Center for Geriatric Health,Hospital,,,General Solano Street,14.591779,120.991195,Manila (Philippines)
National Center for Mental Health,Hospital,+632 8531 9001,ncmh.mcc@gmail.com,"Nueve de Pebrero Street, Mandaluyong, 1553",14.58162,121.040939,Manila (Philippines)
National Children's Hospital,Hospital,,,"264 E. Rodriguez Sr. Avenue, Quezon City",14.620335,121.021094,Manila (Philippines)
National Kidney and Transplant Institute,Hospital,+63 2 981 0300,,"East Avenue, 1101",14.647247,121.047249,Manila (Philippines)
National Kidney and Transplant Institute,Hospital,,,"East Avenue, Quezon City, 1101",14.647028,121.046844,Manila (Philippines)
National Mental Hospital,Hospital,,,Caloocan,14.768593,121.043062,Manila (Philippines)
Navotas City Hospital,Hospital,,,M. Naval Street,14.66014,120.945864,Manila (Philippines)
New Era General Hospital,Hospital,,,,14.664331,121.066686,Manila (Philippines)
Nodado General Hospital,Hospital,,,Zabarte Road,14.738274,121.047473,Manila (Philippines)
Nodado General Hospital,Hospital,,,,14.763304,121.044058,Manila (Philippines)
North Caloocan Doctors Hospital,Hospital,,,,14.766075,121.084689,Manila (Philippines)
Novaliches District Hospital,Hospital,,,"Quirino Highway, Quezon City, 1116",14.700538,121.034383,Manila (Philippines)
Novaliches General Hospital,Hospital,,,"Quirino Highway, Quezon City, 1117",14.709498,121.038855,Manila (Philippines)
Olivarez General Hospital,Hospital,,,"Parañaque, 1700",14.479313,120.996895,Manila (Philippines)
Ospital ng Makati,Hospital,8882 6316,,"Sampaguita Street, Taguig, 1642",14.546413,121.061887,Manila (Philippines)
Ospital ng Malabon,Hospital,,,,14.657175,120.950583,Manila (Philippines)
Ospital ng Maynila,Hospital,+63 025246063;+63 025246064,ommc_a@yahoo.com,"Quirino Avenue, Manila, 1004",14.563902,120.986443,Manila (Philippines)
Ospital ng Muntinlupa,Hospital,,,"Centennial Lane, Muntinlupa, 1781",14.414251,121.04417,Manila (Philippines)
Ospital ng Parañaque,Hospital,,,"Quirino Avenue, Parañaque",14.500437,120.991147,Manila (Philippines)
Ospital ng Sampaloc,Hospital,,osam@manila.gov.ph,"677 General Geronimo Street, Manila, 1008",14.607841,120.996718,Manila (Philippines)
Ospital ng Tondo,Hospital,,,"1171 Abad Santos Avenue, Tondo",14.625995,120.978306,Manila (Philippines)
Our Lady Of Grace Hospital,Hospital,,,,14.64872,120.981758,Manila (Philippines)
Our Lady of Grace Hospital,Hospital,+63 283611124,,8th Avenue,14.648897,120.981379,Manila (Philippines)
Our Lady of Lourdes Hospital,Hospital,,,General Luis Street,14.719221,121.006693,Manila (Philippines)
Our Lady of Lourdes Hospital,Hospital,,,,14.594734,121.023098,Manila (Philippines)
Our Lady of Lourdes Hospital,Hospital,,,"P. Sanchez Street, Manila, 1016",14.594931,121.022447,Manila (Philippines)
Our Lady of Mercy Hospital,Hospital,,,"Quezon City, 1100",14.721521,121.039795,Manila (Philippines)
Our Lady of Peace Hospital,Hospital,,,"Villamar 1st Street, Parañaque",14.488356,120.983638,Manila (Philippines)
P. Gonzales Memorial Hospital,Hospital,,,"582 J. P. Rizal Street, Marikina",14.649128,121.098456,Manila (Philippines)
Pacific Global Medical Center,Hospital,,,"Mindanao Avenue, Quezon City, 1116",14.688456,121.029989,Manila (Philippines)
Pamplona Hospital & Medical Center,Hospital,+63 0282554802,,46 Alabang-Zapote Road,14.462869,120.968774,Manila (Philippines)
Pasay City General Hospital,Hospital,,,"Padre Burgos Street, Pasay, 1300",14.549322,121.001002,Manila (Philippines)
Pascual General Hospital,Hospital,,,"M. Pascual Street, Quezon City, 1400",14.667051,121.009087,Manila (Philippines)
Pasig City Children's Hospital,Hospital,,,Industria Extension,14.561966,121.074443,Manila (Philippines)
Pasig City General Hospital,Hospital,,,"M. Eusebio Avenue, Pasig",14.572437,121.099227,Manila (Philippines)
Pasig Doctors Medical Center,Hospital,,,"Eulogio Amang Rodriquez, Pasig",14.600855,121.092256,Manila (Philippines)
Perpetual Help Hospital,Hospital,,,Manila,14.613392,120.988343,Manila (Philippines)
Perpetual Succor Maternity Hospital,Hospital,,,Florentino Cayco Street,14.6081,120.99233,Manila (Philippines)
Philippine Children's Medical Center,Hospital,,,"Quezon Avenue, Quezon City, 1100",14.647586,121.041444,Manila (Philippines)
Philippine General Hospital,Hospital,+63 2 3450 0188,,"Taft Avenue, Manila, 1000",14.57777,120.985664,Manila (Philippines)
Philippine Heart Center,Hospital,,,"East Avenue, Quezon City, 1100",14.643917,121.048417,Manila (Philippines)
Philippine Medical Tests System,Hospital,,,,14.63588,121.024603,Manila (Philippines)
Philippine National Police General Hospital,Hospital,,,,14.60963,121.05209,Manila (Philippines)
Philippine Navy Hospital,Hospital,,,Taguig,14.530296,121.031679,Manila (Philippines)
Philippine Orthopedic Hospital,Hospital,+63 2 711 4276,,,14.627792,121.003356,Manila (Philippines)
Pope John Paul II Hospital and Medical Center,Hospital,,,"545 -E Alabang-Zapote Road, Las Piñas",14.443312,120.996365,Manila (Philippines)
President Corazon C. Aquino General Hospital,Hospital,,,Manila,14.591436,120.95722,Manila (Philippines)
Presidential Security Group Station Hospital,Hospital,,,"Manila, 1007",14.593724,121.00069,Manila (Philippines)
Protacio Hospital,Hospital,,,,14.524194,120.996584,Manila (Philippines)
Providence Hospital,Hospital,+63 2 558 6999,,"Quezon Avenue, Quezon City, 1104",14.641249,121.031684,Manila (Philippines)
Queensberry,Hospital,,,Ramirez Street,14.723875,121.039676,Manila (Philippines)
Quezon City General Hospital,Hospital,+632 8630800,,"Seminary Road, Quezon City",14.661506,121.01796,Manila (Philippines)
Quezon Institute,Hospital,,,,14.617654,121.013204,Manila (Philippines)
Quezon Institute Compound,Hospital,,,,14.616513,121.012332,Manila (Philippines)
QuintoPolyMedic,Hospital,,,,14.667509,120.947717,Manila (Philippines)
Quirino Memorial Medical Center,Hospital,,,J. P. Rizal Street,14.622174,121.072572,Manila (Philippines)
Recuenco General Hospital,Hospital,,,"Sampaloc Extension, Taguig, 1633",14.513323,121.059655,Manila (Philippines)
Research Institute for Tropical Medicine,Hospital,+632 8072628 loc. 332,,"Muntinlupa, 1781",14.409918,121.036976,Manila (Philippines)
Rizal Medical Center,Hospital,+632 6719740-43 loc. 103;+632 6719616;+63936 1944238;+63932 6019341,info@rmc.doh.gov.ph,"425 Pasig Boulevard, Pasig",14.563948,121.066122,Manila (Philippines)
Rosario Maclang Bautista General Hospital,Hospital,,,"Batasan Hills, Quezon City, 1126",14.686097,121.089104,Manila (Philippines)
SDS Medical Center,Hospital,+63289337078,sdsmedicalrecords@gmail.com,"Katipunan Street, Marikina",14.639449,121.110016,Manila (Philippines)
Saint Anthony Medical Center,Hospital,,,"32 B. Santa Ana Street, Marikina",14.624501,121.102796,Manila (Philippines)
Saint Jude Hospital and Medical Center,Hospital,,,"Don Quijote Street, Manila",14.615793,120.989389,Manila (Philippines)
Saint Martin de Porres Charity Hospital,Hospital,,,"A. Bonifacio Street, San Juan, 1500",14.598964,121.031547,Manila (Philippines)
Saint Victoria Hospital,Hospital,,,"J. P. Rizal Street, Marikina",14.642181,121.094689,Manila (Philippines)
Salve Regina General Hospital,Hospital,,,"Marcos Highway, Pasig",14.620042,121.096216,Manila (Philippines)
San Juan Medical Center,Hospital,,,N. Domingo Street,14.606605,121.023475,Manila (Philippines)
San Lazaro Hospital,Hospital,+632 7323777,,"Quiricada Street, Manila, 1003",14.613828,120.980757,Manila (Philippines)
San Lorenzo Hospital,Hospital,,,"Quirino Highway, Quezon City",14.735726,121.069159,Manila (Philippines)
San Lorenzo Hospital,Hospital,,,"Deparo Road, Caloocan",14.73725,121.032302,Manila (Philippines)
San Lorenzo Ruiz General Hospital,Hospital,,,"25 O. Reyes Street, Malabon City",14.694303,120.956407,Manila (Philippines)
San Ramon Hospital,Hospital,,,"108 General Ordoñez Street, Marikina",14.644105,121.117215,Manila (Philippines)
Sanctissimo Rosario General Hospital,Hospital,,,"Espiritu Street, Valenzuela",14.67523,120.984269,Manila (Philippines)
Santa Ana Hospital,Hospital,+63 2 8516 6151;+63 2 8516 6790,admin@staanahospital.com,"2692 New Panaderos Street, Manila, 1009",14.583431,121.016156,Manila (Philippines)
Soccoro Clinic,Hospital,,,,14.498033,120.990522,Manila (Philippines)
St. Camillus Medical Center,Hospital,+63 2 864 5374,,"116 Amang Rodriguez Avenue, Pasig City, 1600",14.612177,121.091696,Manila (Philippines)
St. Francis General Hospital,Hospital,,,Manila,14.608945,121.003958,Manila (Philippines)
St. John Hospital,Hospital,,,,14.69316,120.965625,Manila (Philippines)
St. Luke's Medical Center,Hospital,+63 2 723 0101,,"278 E. Rodriguez Sr. Avenue, Quezon City, 1112",14.622882,121.023504,Manila (Philippines)
St. Luke's Medical Center Global City,Hospital,+63939 9373182;+632 7897700,,"32nd Street, Taguig, 1634",14.555134,121.048116,Manila (Philippines)
St. Vincent Hospital,Hospital,,,"Bayan-Bayanan Avenue, Marikina, 1807",14.650954,121.107627,Manila (Philippines)
Sta. Rita De Baclaran General Hospital,Hospital,,,Parañaque,14.529907,120.995868,Manila (Philippines)
Taguig City General Hospital,Hospital,,,"Temple Street, Taguig",14.514455,121.072568,Manila (Philippines)
Taguig Doctors Hospital,Hospital,,,,14.478802,121.061045,Manila (Philippines)
Taguig-Pateros District Hospital,Hospital,,,"East Service Road, Taguig",14.510831,121.034246,Manila (Philippines)
Tanchoco Clinic,Hospital,,,,14.67563,120.943161,Manila (Philippines)
The Medical City,Hospital,+632 9881000 loc. 6765,,"Ortigas Avenue, Pasig, 1604",14.589951,121.069306,Manila (Philippines)
The Premier Medical Center,Hospital,,,,14.488644,120.993132,Manila (Philippines)
Tondo Medical Center,Hospital,+6399 89446223,,"Honorio Lopez Boulevard, Manila",14.635022,120.96307,Manila (Philippines)
TriCity Medical Center,Hospital,+63282759752,,"269 C. Raymundo Avenue, Pasig",14.575821,121.085324,Manila (Philippines)
Trinity Woman and Child Hospital,Hospital,,,"New Panaderos Street, Manila",14.584094,121.017712,Manila (Philippines)
UP Health Service,Hospital,,,"Laurel Avenue, Quezon City",14.659908,121.07105,Manila (Philippines)
UST Hospital Clinical Division,Hospital,,,"Manila, 1015",14.612248,120.989819,Manila (Philippines)
Unciano Paramedical General Hospital,Hospital,,,,14.600722,121.016232,Manila (Philippines)
Unciano Paramedical General Hospital,Hospital,,,"Manila, 1016",14.600708,121.01623,Manila (Philippines)
Unihealth-Parañaque Hospital and Medical Center,Hospital,,,"Dr. A. Santos Avenue, Parañaque, 1700",14.464435,121.019574,Manila (Philippines)
United Doctors Medical Center,Hospital,,,"6 Nicanor Ramirez Street, Quezon City",14.617052,121.001833,Manila (Philippines)
University of Perpetual Help Dalta Medical Center,Hospital,,,"Alabang-Zapote Road, Las Piñas, 1740",14.448291,120.985629,Manila (Philippines)
University of Santo Tomas Hospital,Hospital,,,"A. H. Lacson Avenue, Manila",14.611269,120.990194,Manila (Philippines)
University of the East - Ramon Magsaysay Memorial Medical Center,Hospital,,,"Aurora Boulevard, San Juan, 2514",14.606673,121.020595,Manila (Philippines)
VT Maternity Hospital,Hospital,,,"Toyota Avenue, Marikina",14.637106,121.09944,Manila (Philippines)
Valenzuela Citicare Medical Center,Hospital,,,,14.695594,120.963252,Manila (Philippines)
Valenzuela City Emergency Hospital,Hospital,,,"G. Lazaro Street, Valenzuela",14.709201,120.957845,Manila (Philippines)
Valenzuela City Medical Center,Hospital,,,,14.689496,120.977747,Manila (Philippines)
Valenzuela Medical Center,Hospital,,valgenhosp@yahoo.com,"Padrigal Street, Valenzuela, 1441",14.689902,120.977874,Manila (Philippines)
Veterans Memorial Medical Center,Hospital,,,"North Avenue, Quezon City, 1100",14.656512,121.040053,Manila (Philippines)
Vian Family Hospital,Hospital,,,General T. de Leon Road,14.684865,120.989171,Manila (Philippines)
Vian Family Hospital II,Hospital,+63 2 7261 3275; +63 2 3454 3433,,"411 Quirino Highway, Quezon City, 1116",14.682847,121.021062,Manila (Philippines)
Victor R. Potenciano Medical Center,Hospital,,,"163 Epifanio De los Santos Avenue (EDSA), Mandaluyong, 1550",14.576948,121.049984,Manila (Philippines)
Villarosa Hospital,Hospital,,,F. Salalilla Street,14.621945,121.066072,Manila (Philippines)
World Citi Medical Center,Hospital,,,"Aurora Boulevard, Quezon City",14.627043,121.063326,Manila (Philippines)
"Ygeia Medical Center, Inc.",Hospital,+63 2 8521 8777,,"2081 Quirino Avenue, Manila, 1011",14.588041,121.001663,Manila (Philippines)
