name_key,lat_key,lon_key,phone,email,website,region
haywood hospital walk-in centre,53.05622,-2.19029,+44 1782 581112,,,UK
petersfield medical practice,52.20143,0.13398,+44 1223 350647,,https://www.petersfieldmedicalpractice.co.uk/,UK
cambridge lea hospital (spire),52.24473,0.11346,,,https://www.spirehealthcare.com/cambridge/,UK
wendover health centre,51.76566,-0.74346,,,https://www.westongrove.com/,UK
greenford road medical centre,51.53768,-0.34558,+44 20 8575 8347,,,UK
blackhall medical centre,55.96029,-3.25768,+44 131 332 7696,,https://www.blackhallmedicalcentre.co.uk/,UK
st mark's medical centre,51.5293,-0.30286,+44 20 8810 5545,,,UK
oakfield surgery,51.81797,-0.78955,,,https://www.oakfieldsurgery.co.uk/,UK
macmillan way medical centre,51.4316,-0.15133,,,"https://www.macmillanwaysurgery.nhs.uk/welcome,59101.htm",UK
the limes surgery,51.75945,-0.01097,+44 1992 464533,,https://thelimessurgery.co.uk/,UK
fulwood green medical centre,53.37021,-2.93721,+44 151 727 2440,,https://www.fulwoodgreen.co.uk/,UK
alfred bean community hospital,54.01217,-0.42323,+44 1377 208700,,https://www.chcpcic.org.uk/,UK
guildowns stoughton road surgery,51.25237,-0.57344,,guildowns.practice@nhs.net,https://www.guildowns.nhs.uk/stoughton-road-surgery,UK
riverside centre for health,53.38635,-2.9729,+44 151 295 9228,g.n82033@nhs.net,https://www.dingledocs.nhs.uk/,UK
hampton dene surgery,52.05189,-2.68143,+44 1432 268031,,https://www.cantilupe.com/location/hampton-dene-surgery/,UK
manor practice,51.35337,-0.13367,+44 20 8647 1818,,https://www.manorpractice.org.uk/,UK
manor health centre,51.46543,-0.13609,,,https://www.claphamhealth.nhs.uk/,UK
cornbrook medical centre,53.46701,-2.23973,+44161 872 8129,,https://www.boundarymedicalpractice.co.uk/,UK
st james's hospital a&e,53.8064,-1.52133,+44 113 243 3144,,,UK
imperial college health centre,51.49866,-0.17214,,,https://www.imperialcollegehealthcentre.co.uk/,UK
hollow way medical centre,51.73599,-1.20752,,,https://hollowwaymedicalcentre.co.uk,UK
market cross surgery,52.34353,0.51022,,,https://www.marketcross-surgery.co.uk/,UK
wootton surgery,51.70657,-1.31589,+44 1865 248719,,,UK
martlesham heath surgery,52.06099,1.27274,,,https://www.mhdoctors.co.uk/,UK
banbury road medical centre,51.77498,-1.26363,+44 1865 515731,,,UK
carden medical centre,57.14581,-2.11591,,,https://www.cardenmedical.com/,UK
bridge lane health centre,51.47327,-0.16632,+44 20 3538 0882,,https://bridgelanegp.co.uk/,UK
palace road surgery,51.44398,-0.12103,+44 20 8674 2083,,,UK
the ailsa craig medical practise,53.45439,-2.20877,,,https://ailsacraigmedicalpractice.co.uk/,UK
east craigs medical centre,55.95068,-3.3037,,,http://www.eastcraigsgp.org.uk,UK
brookside health centre,50.68146,-1.52428,,,https://brooksidehealthcentre.nhs.uk/,UK
prebend street surgery,51.53662,-0.09648,+44 20 7226 9090,,,UK
whitley road medical centre,53.49493,-2.22273,,,https://www.whitleyroadmedicalcentre.nhs.uk/,UK
rochdale road surgery,53.49262,-2.22524,,,https://www.nhs.uk/services/gp-surgery/rochdale-road-surgey/P84046001,UK
zachary merton hospital,50.80795,-0.50067,+44 1903 858100,,https://www.sussexcommunity.nhs.uk/services/locations/zachary-merton-hospital.htm,UK
appleby medical practice,54.57897,-2.49417,+44 17683 51584,,https://www.applebymedicalpractice.co.uk/,UK
beggarwood surgery,51.22955,-1.14149,+44 1256 396500,,https://www.beggarwoodsurgery.co.uk/,UK
lime tree surgery,51.55497,0.00515,+44 20 8519 9914,,,UK
westcroft house surgery,54.48305,-3.5286,+44 1946 820348,,https://www.westcrofthouse.co.uk/,UK
cherry willingham branch surgery,53.24174,-0.45463,,,https://www.nhs.uk/services/gp-surgery/cherry-willingham-branch-surgery/C83031002,UK
scalloway health centre,60.14077,-1.27175,+44 1595 880219,,https://scallowayhealthcentre.co.uk,UK
the project surgery,51.53199,0.01971,,,https://www.theprojectsurgery.com/,UK
roman gate surgery,52.3173,-0.17466,+441480 455331,,https://www.charleshicksmedicalcentre.nhs.uk/,UK
abington park surgery,52.24268,-0.86889,+44 1604 630396,,https://www.abingtonparksurgery.com,UK
king edward road surgery,52.24252,-0.86898,+44 1604 611600,,https://www.kers.org.uk,UK
haltwhistle war memorial hospital,54.97006,-2.46309,+44 844 811 8111,,,UK
kennington health centre,51.71779,-1.24482,+44 1865 762535,,https://www.manorsurgeryoxford.co.uk/kennington,UK
hollyns health and wellbeing,53.799,-1.82632,+44 1274 880 650,,https://www.hollynshealth.co.uk/,UK
newbold verdon medical practice,52.63505,-1.34363,+441455822171,,https://www.newboldverdonandmarketbosworthmedicalpractice.co.uk/,UK
anne nails,53.80101,-1.55201,+44 7709 017089,,,UK
carlton street surgery,52.82058,-1.64842,+44 1283 563561; +44 1283 511387,,https://www.carltonstreet.nhs.uk/,UK
the holloway medical clinic,51.54982,-0.10828,+44 20 7607 2323,,,UK
hedena health ltd. barton,51.76782,-1.19628,+44 1865 227788,,https://www.nhs.uk/services/clinic/barton-surgery/RNUHA,UK
"mendip vale medical practice, congresbury",51.37101,-2.81148,+44 1934 839820,,https://www.mendip-vale.co.uk/congresburysurgery,UK
imery street surgery,54.98829,-1.42593,+44 191 456 3824,,https://www.imearystreetsurgery.nhs.uk/,UK
the green surgery,51.4444,-0.33918,,,https://thegreenandfirroadsurgeries.co.uk/,UK
great chapel street medical centre,51.51467,-0.13206,+44 20 7437 9360,,https://greatchapelst.org.uk/,UK
grange medical group,55.93518,-3.19305,+44 131 447 1646,,https://grangemedicalgroup.com/,UK
sobell medical centre,51.55401,-0.11357,+44 20 7609 3050,,https://www.sobellmedicalcentre.nhs.uk/,UK
willen hospice,52.0619,-0.72002,+44 1908 663636,,,UK
park medical centre,51.497,-0.24322,+44 20 8741 7471,,https://parkmedicalcentre.com/#,UK
amherst medical practice,51.27727,0.18673,,,https://www.amherstmedicalpractice.co.uk/,UK
acorn & gaumont house surgery,51.4741,-0.06578,+44 20 7138 7888,,https://www.acorn-gaumont.nhs.uk,UK
south west london elective orthopaedic centre (swleoc),51.32466,-0.27245,,,https://www.eoc.nhs.uk/,UK
star lane medical centre,51.51982,0.01071,+44 20 7476 4862,,https://www.starlanemedicalcentre.nhs.uk,UK
the lodge surgery,51.44793,-2.10156,+44 1249 479809,enquiries.lodgesurgery@nhs.net,https://www.thelodgesurgery.co.uk/,UK
the bay medical practice,50.65052,-1.16242,+44 1983 409292,iwccg.thebaymedical@nhs.net,https://thebaymedicalpractice.nhs.uk/,UK
horton midwifery-led unit,52.05365,-1.3335,+44 1295 229459,,https://www.ouh.nhs.uk/women/maternity/units/horton/default.aspx,UK
chelsfield park hospital,51.35826,0.13167,+44 1689 877855,,https://www.bmihealthcare.co.uk/hospitals/bmi-chelsfield-park-hospital,UK
warren road surgery,50.59866,-3.44454,+44 1626 888877,,https://www.nhs.uk/services/gp-surgery/the-warren-surgery/L83005001,UK
st monicas hospital,54.1184,-1.18924,+44 1347821214,,https://www.yorkhospitals.nhs.uk/our_hospitals/st_monicas_easingwold/,UK
the limes medical centre,52.46664,-1.85966,+44 121 772 0067,,https://www.thelimesmedicalbirmingham.nhs.uk/,UK
statham grove surgery,51.55715,-0.08929,+44 20 7254 4327,,http://www.stathamgrovesurgery.co.uk/,UK
the vale surgery,51.41738,-0.13652,+44 2086 797536,,https://www.thevalesurgery.co.uk/,UK
shere surgery/dispensary,51.22015,-0.46006,+44 1483202066,,https://www.sheresurgery.nhs.uk/,UK
whitley house surgery,51.72639,0.45629,+44 1245 347539,,https://www.whitleyhouse.co.uk/,UK
rumney primary care centre,51.50652,-3.12546,+44 2920797751,,,UK
knaphill surgery,51.31627,-0.61965,+441483 473464,,http://www.heathcotmedicalpractice.nhs.uk,UK
the hoxton surgery,51.53349,-0.08677,+44 20 3487 0200,,https://www.hoxtonsurgery.nhs.uk/,UK
broadbay medical practice,58.20879,-6.38601,,,https://broadbaymedicalpractice.com/,UK
st peters street medical practice,51.5357,-0.10094,+44 844 477 8717,,,UK
manor place surgery,51.4892,-0.09671,,,http://www.manorplacesurgery.nhs.uk,UK
old swan health centre group practice,53.41115,-2.91679,,,https://oldswanhcgp.nhs.uk/,UK
second spring clinic,50.72047,-3.52337,+44 1392 428141,reception@magdalenhealth.co.uk,https://secondspringclinic.co.uk/,UK
charlton house medical centre,51.59619,-0.06904,,,https://www.charltonhousemedicalcentre.co.uk/,UK
field house surgery,54.11743,-0.12439,+44 1262 850172,,,UK
the body clinic,53.37858,-2.34738,+44 161 941 5922,,,UK
gp direct,51.57529,-0.3589,+44 20 8515 9300,,,UK
the city surgery,51.49094,-3.17075,+44 2920 437980,enquiries.W97056@wales.nhs.uk,http://www.thecitysurgery.co.uk/home,UK
clerklands surgery,51.17471,-0.17069,,,https://www.woodlands-clerklandspartnership.co.uk/,UK
the elms practice,50.78975,-0.97641,+44 23 9246 6216,,https://www.elmspracticehayling.nhs.uk/,UK
isight,53.64193,-3.01648,+44 1704 563279,,https://www.isightclinics.com/,UK
kendall crescent medical centre,51.78991,-1.2651,+44 1865 512288,,,UK
st peter's surgery,51.71418,-1.96805,,,https://cirencesterhealthgroup.co.uk/,UK
claremont surgery,51.52501,-0.71981,,,http://www.claremontsurgery.co.uk/,UK
buxton hospital & corbar birth centre,53.24821,-1.90826,+44 1298 214 000,,,UK
newbold surgery,53.25625,-1.44793,+44 1246 277381,admin.newboldsurgery@nhs.net,https://www.newboldsurgery.co.uk/,UK
captain french surgery,54.3233,-2.74807,+44 1539 720241,,,UK
station house surgery,54.33196,-2.73988,+44 1539 722660,,https://www.stationhousesurgery.nhs.uk/,UK
sloane hospital,51.4082,-0.00454,+44 20 8466 6911,,https://www.bmihealthcare.co.uk/sloane,UK
high street sugery,53.7679,-2.41761,+44 1254 884424,,,UK
spinney brook medical centre,52.32445,-0.61416,+44 1933 650593,,https://www.spinneybrookmedcentre.co.uk,UK
wootton surgery,52.20251,-0.88626,+44 1604 709933,,https://www.woottonmedicalcentre.co.uk,UK
coatbridge health centre,55.85978,-4.02612,+44 300 303 0251,,https://www.lansh.scot.nhs.uk/services/coatbridge-health-centre/,UK
st neots health centre,52.22917,-0.26748,,,https://www.mhstneots.co.uk/,UK
kingsmount medical centre,52.54261,-1.88579,+44 121 373 0042,,https://www.mmpmedical.com/our-surgeries/kingsmount-medical-centre/,UK
triangle group practice,51.45795,-0.01165,,,https://www.trianglegrouppractice.co.uk/,UK
leven medical practice,55.94384,-3.20555,+441315369700,,http://www.leven.gpsurgery.net/,UK
telephone house surgery,50.89784,-1.40372,+44 2380 333778,,,UK
ig medical,53.92335,-1.81472,+44 1943 604999,,https://www.igmedical.co.uk/,UK
mayford house surgery,54.32836,-1.44654,,,https://www.mayfordhouse.co.uk/,UK
chiswick medical practice (wellesley road site),51.49083,-0.27164,+44 20 8747 1549,,https://www.chiswickmedicalpractice.co.uk,UK
lindum medical practice,53.24724,-0.52442,+44 1522 569 033,,,UK
andover war memorial hospital,51.21556,-1.49456,+44 1264 358 811,,,UK
appletree medical practice,52.96972,-1.4617,+44 1332 842288,,https://www.appletreemedical.co.uk/,UK
berry lane medical centre,53.83087,-2.60362,+44 1772 376777,,https://www.berrylanemedicalcentre.co.uk/,UK
fairview medical centre,53.44793,-2.36325,+44 161 748 2021,,,UK
denham medical centre,51.58529,-0.50149,+44 1895 832012,,https://www.denhammedicalcentre.co.uk/,UK
lister house,52.90189,-1.4772,,,https://www.listerhousesurgery.co.uk,UK
westbourne grove medical centre,51.51407,-0.20098,+44 20 7229 5800,,https://westbournegrovemedicalcentre.co.uk/,UK
glasgow dental hospital,55.86606,-4.26558,+44 141 211 9600,,,UK
white medical group,54.97808,-1.82014,,,http://www.whitemedicalgroup.gpsurgery.net/,UK
ashburton surgery,50.51767,-3.75091,,,https://www.ashburtonsurgery.co.uk/,UK
chorlton health centre,53.44384,-2.27957,,,http://www.drschenanddavis.co.uk/,UK
airey close,52.49744,1.71885,+44 1502 560111,,,UK
north wales breast screening centre,53.31312,-3.83096,+44 1492 860888,,,UK
the fulham medical centre,51.4806,-0.19304,,,https://www.fulhammedicalcentre.co.uk/,UK
clarendon lodge medical practice,52.29403,-1.5317,+44 1926 331401,,https://www.clmp.org.uk/,UK
oaklands clinic,53.41477,-2.07988,+44 161 494 2437,,,UK
central health,51.5168,-0.11186,+44 20 7404 6343,,https://www.central-health.com/chancery-lane-physiotherapy-clinic/,UK
whaddon medical centre,51.99992,-0.76689,+44 1908 373058,,https://whaddonmedicalcentre.co.uk/,UK
leith mount surgery,55.97848,-3.18304,+44 1315611900,,https://www.leithmountsurgery.co.uk/,UK
abbey meads medical practice,51.59791,-1.7927,+441793706030,,,UK
witham health centre,51.80058,0.64287,+44 1376 302740,,https://www.nhs.uk/Services/opticians/Overview/DefaultView.aspx?id=20389,UK
bloomsbury surgery,51.52563,-0.12293,+44 20 7837 8559,,,UK
worden medical center,53.69039,-2.70832,+44 1772 423555,,https://www.wordenmc.net/,UK
james cochrane practice,54.33023,-2.74806,+44 1539 718080,,https://www.jamescochranepractice.co.uk/contact1.aspx?p=A82026,UK
mackenzie medical centre,55.94562,-3.18358,,,https://www.mackenziemedicalcentre.co.uk/,UK
aberdeen chiropractic clinic,57.13495,-2.1262,,,https://www.aberdeenchiropracticclinic.com/,UK
bodmin road health centre,53.42753,-2.35186,,,bodminroadhealthcentre.co.uk,UK
the linden medical group,52.93035,-1.27316,,,https://www.thelindenmedicalgroup.co.uk/,UK
saxon cross surgery,52.93054,-1.2731,,,https://www.saxoncrosssurgery.co.uk/,UK
ashcroft surgery,53.82429,-1.71206,+44 1274 637 076,,https://www.ashcroftsurgery.co.uk/,UK
st paul's surgery,51.0659,-1.32146,,,https://www.stpaulssurgery-winchester.nhs.uk/,UK
harborough field surgery,52.28632,-0.58212,+44 1933 354200,,https://www.harboroughfieldsurgery.nhs.uk,UK
balmore park surgery,51.46964,-0.97326,+44 1189471455,,https://www.balmoreparksurgery.co.uk/,UK
the paddocks hospital,51.7284,-0.82624,,,https://www.bmihealthcare.co.uk/hospitals/bmi-the-paddocks-clinic,UK
figges marsh surgery,51.41023,-0.16211,+44 20 8640 4445,,https://www.figgesmarshsurgery.nhs.uk/,UK
woodstock medical centre,55.67386,-3.77245,+44 1555 665522,,,UK
park road medical centre,51.36345,-0.15093,+44 20 8647 4485,,https://www.parkroadcentre.co.uk/,UK
queen mary's childrens' hospital,51.3798,-0.18484,+44 20 8296 2000,est-tr.PALS@nhs.net,https://www.epsom-sthelier.nhs.uk/,UK
carterton health centre,51.75873,-1.59657,+44  1993 841718,,https://www.bamptonmedicalpractice.co.uk/,UK
stockbridge health centre,55.95707,-3.20732,+44 131 260 9227,,http://www.greenpractice-shc.co.uk/,UK
john munroe hospital,53.12509,-2.08255,+44 1538 394270,,https://www.johnmunroehospital.co.uk/,UK
gorton street surgery,53.82143,-3.04272,+44 1253 957440,,,UK
swiss cottage surgery,51.54277,-0.17246,+44 20 7722 2772,,https://www.swisscottagesurgery.nhs.uk,UK
the st. werburgh medical practice,51.45359,0.63318,+44 1634 271347,,,UK
oates hill health centre,53.12427,-1.25852,,,https://www.nhs.uk/services/clinic/oates-hill-health-centre/RHARV,UK
woodlands surgery,51.23138,-0.17177,+44 1737 773218,,https://www.woodlands-surgery.co.uk/,UK
brighton station health centre,50.82793,-0.14136,,,https://www.practiceplusbrightonstation.nhs.uk/,UK
hucknall road medical centre,52.98995,-1.16811,,,https://www.hucknallrdmc.co.uk/,UK
sk:n,50.82529,-0.13865,,,https://www.sknclinics.co.uk/clinics/the-south/brighton-jubilee-street,UK
rookery medical centre,52.24516,0.40551,,,https://www.rookerymedicalcentre.co.uk/,UK
the rejuvenation clinic,53.42505,-2.32778,+44 161 905 1723,,,UK
taylors avenue medical centre,53.54804,-0.03633,+44 1472 572 400,nel.b81642@nhs.net,,UK
st john's wood medical practice,51.53286,-0.17453,,,https://stjohnswood.nhs.uk/,UK
polruan surgery,50.32898,-4.63444,+44 844 499 2767,,,UK
chelsea outpatient centre,51.48677,-0.1718,+44 20 7881 4114,,https://www.hcahealthcare.co.uk/locations/outpatients/the-lister-hospital/chelsea-outpatients,UK
the abingdon medical practice,51.49629,-0.19713,,,https://www.abingdonmedicalpractice.co.uk/,UK
cricklewood health centre,51.55763,-0.21532,,,https://www.cricklewoodgphealthcentre.nhs.uk/,UK
hill top medical centre,52.47721,-1.99734,+44 121 422 2146,,,UK
dr jefferies & partners,51.4816,-0.21304,+44 20 7385 5728,,https://www.drjefferiesandpartners.co.uk/,UK
north road surgery,51.65824,-3.0045,+44 1633 483 226,,https://111.wales.nhs.uk/localservices/viewlocalservice.aspx?id=194,UK
parkway health centre,51.34345,-0.01829,+44 1689 808300,,https://www.nhs.uk/Services/gp/Overview/DefaultView.aspx?id=41655,UK
newsome surgery,53.62913,-1.78464,+44 1484 514118,newsomesurgery@nhs.net,https://www.newsomesurgery.co.uk/,UK
parkview back pain & sports injury centre,51.22297,-0.19946,+44 1737 247555,,https://www.parkviewclinic.co.uk/,UK
kingussie medical practice,57.08097,-4.05471,,,http://www.kmpdoctors.co.uk/,UK
tyn y coed surgery,51.54119,-3.58376,+44 1656 720334,,,UK
iver medical centre,51.52039,-0.50959,+44 1753653008,,,UK
lenwade surgery,52.72115,1.10595,+44 1603 871160,,https://www.mattishallsurgery.co.uk/,UK
blackwell medical centre,53.12117,-1.35546,,,https://www.blackwellmedicalcentre.co.uk/,UK
townhead health centre,55.86565,-4.23129,,,http://www.glasgowroyalgp.co.uk,UK
wychbury medical centre,52.4411,-2.11124,+441562547300,,,UK
linkfield physiotherapy clinic,51.23996,-0.17753,+44 1737 763632,,,UK
north cardiff medical centre,51.53774,-3.19455,,,https://www.northcardiffmedicalcentre.co.uk/,UK
hillcrest medical centre,51.68315,-3.38136,+44 1443 473783,,,UK
hestia medical cosmetics,52.24473,0.71424,+44 1284 488228,,https://hestiaaesthetics.co.uk/,UK
abernethy house surgery,51.65454,-0.08112,,,https://www.abernethyhouse.co.uk/,UK
white lodge medical practice,51.65433,-0.08088,,,https://www.nhs.uk/services/gp/overview/defaultview.aspx?id=39377,UK
wallace house branch surgery,51.79988,-0.10216,,,https://www.wallacehousesurgery.co.uk/,UK
homerton sexual health,51.5134,-0.07851,,,https://www.homerton.nhs.uk/our-services/services-a-z/s/sexual-health-services/opening-times/80-leadenhall-street/,UK
north london health centre,51.61853,-0.11181,,,https://www.thenorthlondonhealthcentre.co.uk/,UK
trinity health,51.7733,-0.99211,+44 1844 208242,,,UK
eastgate surgery,54.00646,-1.46139,+44 1423788300,,,UK
trumpington street medical practice,52.20334,0.11766,+44 1223 361611,,https://www.trumpingtonstreetmedicalpractice.co.uk/,UK
back in line,51.53677,-0.90433,+44 1491 579 712,,http://back-in-line.org/,UK
parkside family practice,51.4532,-0.90483,+44 118 926 0026,,http://www.parksidefamilypractice.org.uk/,UK
woodley centre surgery,51.45314,-0.90484,+44 118 969 7307,,https://www.woodleycentresurgery.co.uk/,UK
hockley medical practice,52.48686,-1.91676,,,https://www.hockleymedicalpractice.com/,UK
bridge medical centre,51.11744,-0.1664,+44 1293 526025,,https://www.bridgemedicalcentre.co.uk/,UK
magor surgery,51.57964,-2.8303,+44 1291 420 282,,https://111.wales.nhs.uk/localservices/viewlocalservice.aspx?id=67,UK
victoria central health centre,53.4157,-3.04586,+44 151 678 7272,,,UK
bridge house medical practice,51.57735,-0.0991,+44 20 8482 9697,,https://bridgehouselondon.nhs.uk,UK
park lane surgery,54.60475,-1.42475,+44 1740631001,,https://www.stillingtondoctors.co.uk/,UK
rendlesham park surgery,52.12656,1.41457,,,https://www.wickhammarketmc.nhs.uk/,UK
southernhay house branch surgery whipton,50.73251,-3.49562,+44 1392 211266,,https://www.southernhayhousesurgery.co.uk/,UK
middleway surgery,50.35647,-4.71331,,,https://www.middlewaysurgery.co.uk/,UK
rothschild house surgery,51.79089,-0.66891,,,https://www.rothschildhousesurgery.co.uk/contact-us/rothschild-house-surgery/,UK
riverbank medical centre,50.99323,-0.73563,+44 1730 812121,,https://www.riverbankmedical.co.uk/,UK
cambridge skin & laser clinic,52.19196,0.1324,+44 1223362226,,www.cambridgelaser.com,UK
the surgery 32 clifton,53.96713,-1.09272,+44 1904 653834,,,UK
meridian surgery,50.79621,-0.00064,,,https://www.meridian-surgery.co.uk/,UK
jericho health centre,51.76005,-1.26556,+441865429993,,https://www.gpjerichotwo.co.uk/,UK
llandovery hospital,51.99872,-3.79674,+44 1550 722200,,,UK
tolcross medical centre,55.84347,-4.17129,+44 141 778 2717,,,UK
petergate surgery,53.9854,-1.1,+44 1904 479111,,,UK
clementhorpe health centre,53.95155,-1.08302,+44 1904 646898,,,UK
teviot medical practice,55.42323,-2.78776,+44 1450 370999,,,UK
doctors surgery,54.95915,-1.47884,+44 191 428 0 448,,,UK
cromwell primary care centre,53.56776,-0.1096,+44 1472 255 600,,https://careplusgroup.org/location/cromwell-primary-care-centre/,UK
south shore primary care centre,53.78138,-3.04735,+44 1253 953399,,https://www.nhs.uk/Services/clinics/MapsAndDirections/DefaultView.aspx?id=90513,UK
ess clinic,51.59332,0.02537,+44 20 8989 2004,,https://www.essclinic.co.uk/,UK
chellaston medical centre,52.86742,-1.4494,+44 1332 720077,,https://melbourneandchellaston.nhs.uk/,UK
regency clinic,51.52923,-0.08788,+44 20 7490 0550,,http://regencyclinic.co.uk/,UK
southdene surgery,51.59373,0.02571,+44 20 8530 3731,,https://www.southdenesurgery.co.uk/,UK
the shrubberies medical centre,51.59476,0.02435,+44 20 8530 4108,,https://theshrubberiesmedicalcentre.co.uk/,UK
lily house consulting rooms,51.59467,0.02445,+44 20 8530 8888,,https://www.lilyhouse.com/,UK
randox health,52.47922,-1.89459,,,https://randoxhealth.com,UK
numi scan east london,51.59344,0.02265,,,https://www.eastlondonnumiscan.co.uk,UK
the elgin clinic,51.5248,-0.19855,,,https://www.elginclinic.nhs.uk/,UK
cable street surgery,51.5114,-0.04894,+44 20 7423 9022,,https://www.nhs.uk/services/gp-surgery/cable-street-surgery/F84682002,UK
broad street health centre,51.45496,-0.9754,+44 118 902 8300,bw-pct.readingwalkinhealthcentre@nhs.net,http://www.readingwalkinhealthcentre.nhs.uk,UK
gilmore medical practice,55.94395,-3.20568,,,https://www.gilmore-medical.com/,UK
stonefield surgery,53.60225,-2.10223,+44 1706 646234,,https://www.stonefieldsurgery.co.uk,UK
meadows medical practice,55.94243,-3.20072,+44 131 229 7709,,https://www.meadowsmedicalpractice.scot.nhs.uk/,UK
ivry street medical centre,52.06396,1.1485,,,https://www.ivrystreet.co.uk/,UK
watlington medical centre,52.66684,0.39121,+44 1553 810253,,http://www.watlingtonmedicalcentre.org/,UK
st helens urgent treatment centre,53.45329,-2.73166,+44 1744 627400,,https://www.sthelensccg.nhs.uk/local-services/st-helens-urgent-treatment-centre/,UK
moodiesburn medical centre,55.91129,-4.0886,+44 1236 872276,,https://www.glenboigsurgery.co.uk/,UK
pickering medical practice,54.24489,-0.78087,,,https://www.pickeringmedicalpractice.co.uk/,UK
grafton square surgery,51.46473,-0.13989,+44 20 7622 5642,,http://www.freemanpractice.co.uk/,UK
holmedale health,50.72201,-3.52234,+44 1392 454954,,www.holmedalehealth.co.uk,UK
cygnet,52.2797,0.04648,,,https://www.cygnetclinic.co.uk/,UK
the old school surgery,52.54764,-1.28164,+44 1455 271442,,http://www.theoldschoolsurgery.com,UK
chineham medical centre,51.28872,-1.05824,,,https://www.chinehamsurgery.co.uk/,UK
parklands gp surgery,52.2835,-0.59618,+44 1933 396000,,https://www.parklandssurgery.co.uk,UK
leyton healthcare,51.55977,-0.01335,+4420 8430 8282,,https://leytonhealthcare.org.uk/,UK
bilborough medical & dental centre,52.96478,-1.22894,+44 115 9292 354,,https://www.bilboroughmedicalcentre.co.uk/,UK
bristol adult cystic fibrosis centre,51.45892,-2.59621,,,https://bacfc.org.uk/,UK
the castle medical group,53.87388,-2.39296,+441200408920,,https://www.castlemedical.nhs.uk/,UK
the old surgery,51.58328,-0.09966,+44 330 053 9499,,https://theoldsurgery-hornsey.nhs.uk,UK
medipark clinic,51.58327,-0.10004,+44 20 8341 3185,info@mediparkclinic.uk,https://mediparkclinic.uk/,UK
abersychan medical practice,51.72314,-3.05807,+44 1495 772 239,,https://www.abersychangp.wales.nhs.uk/,UK
bramhope medical centre,53.88161,-1.61677,+44 113 230 3200,,https://www.chevinmedicalpractice.com/,UK
rosedean house surgery,50.45369,-4.46592,,,https://www.rosedeansurgery.co.uk/,UK
the carnaby laser clinic,51.48249,-0.01886,,,https://www.carnabylaserclinic.com/,UK
optical express,52.20514,0.11958,,,https://www.opticalexpress.co.uk/clinic-finder/south-of-england/cambridge-petty-cury,UK
bridge street medical centre,52.20766,0.11867,,,https://www.bridgestreetmedicalcentre.com/,UK
portmill surgery,51.94865,-0.27487,,,https://www.portmillhealth.co.uk/,UK
horndean surgery,50.91391,-0.99667,,,https://www.horndeansurgery.co.uk/,UK
nhs ordsall health surgery,53.47421,-2.28202,+44 161 983 0080,salccg.ordsallhealthsurgery@nhs.net,https://www.ordsallhealthsurgery.nhs.uk/,UK
brighton laser clinic,50.81905,-0.12955,+44 1273 686869,,https://www.brightonlaserclinic.co.uk/,UK
chalkhill primary care centre,51.56387,-0.2767,+44 20 8736 7128,,,UK
carpenters practice,51.53732,-0.0032,+44 20 8534 8057,,https://www.nhs.uk/Services/GP/Overview/DefaultView.aspx?id=40158,UK
the barn surgery,51.03594,-2.27031,+44 1747 824201,,https://www.gillinghamsurgery.co.uk/,UK
your spinal health,54.66313,-2.75073,+44 1768 259 012,,https://www.yourspinalhealth.com/,UK
staunton group practice,51.59899,-0.11204,,,https://www.morumhouse.nhs.uk/,UK
royal centre for defence medicine,52.45114,-1.94194,,,https://www.uhb.nhs.uk/services/royal-centre-for-defence-medicine/,UK
camberley health centre,51.32447,-0.7541,+44 1276 20101,,https://camberleyhealthcentre.nhs.uk/,UK
alcester health centre,52.21747,-1.86325,+44 1789 763060,,https://www.alcesterhealthcentre.co.uk/,UK
the arrow surgery,52.2175,-1.86326,+44 1789 763293,,https://www.thearrowsurgery.nhs.uk/,UK
the 157 medical practice,51.57001,-0.11406,+44 20 7272 8823,,https://www.the157medicalpractice.nhs.uk,UK
the harley medical group,52.94744,-1.15829,,,https://www.harleymedical.co.uk/our-clinics/nottingham.php,UK
ashbourne medical practice,53.01357,-1.73872,,,https://www.ashbournemedicalpractice.co.uk/,UK
ashbourne surgery,53.01337,-1.73751,,,https://www.thesurgeryashbourne.co.uk/,UK
the bay therapy centre,52.93885,-1.12567,+44 115 9813778,info@baytherapycentre.com,https://www.baytherapycentre.com/,UK
jorvik gillygate medical practice,53.96005,-1.07634,+44 1904 405487,,https://www.jorvikgillygatepractice.co.uk/,UK
ferry road foot clinic,55.97498,-3.18073,+44 131 553 2370; +44 7841 459977,,https://www.ferryroadfootclinic.co.uk/,UK
queen's crescent surgery,55.87123,-4.27066,+44 141 332 3526,,https://www.queenscrescentsurgery.co.uk/,UK
field road health centre - dc downward,53.4332,-3.04502,+44 1516397054,,,UK
leamington spa & redditch chiropractic clinic,52.2931,-1.57004,+44 1926 427354,,https://www.leamingtonchiropractic.co.uk/,UK
morningside chiropractic,55.92298,-3.21105,+44 131 447 3794,,https://www.morningsidechiropractic.co.uk/,UK
marple bridge surgery,53.40028,-2.05311,+44 161 427 2049,,https://www.marplebridgesurgery.nhs.uk/,UK
suttons manor hospital,51.66097,0.18444,+44 1708 687 398,,,UK
upper gordon road surgery,51.33603,-0.74162,+44 1276 459040,,http://www.uppergordonroadsurgery.co.uk,UK
park road surgery,51.33377,-0.7449,+44 1276 670056,,https://www.parkroadsurgery.co.uk/,UK
crown clinic,53.37138,-2.27377,,,http://www.crowncinic.co.uk/,UK
brougham foot clinic,55.94335,-3.20284,,,https://www.broughamfootclinic.co.uk/,UK
the lace market clinic,52.95172,-1.14275,,,http://www.lacemarketclinic.co.uk/,UK
burton croft surgery,53.821,-1.57675,+44 113 274 4777,burton.enquiries@nhs.net,https://www.burtondocs.co.uk/,UK
spamedica,53.82111,-1.57679,,,https://www.specsavers.co.uk/stores/headingley,UK
new cross gate dialysis unit,51.47709,-0.03989,+44 20 7188 7091,,,UK
medical centre,51.75128,-0.24202,+44 1707 284444,,https://www.herts.ac.uk/medicalcentre,UK
milnrow village practice,53.6022,-2.10232,+44 1706 641409,,https://www.milnrowvillagepractice.co.uk/,UK
clifton medical practice,52.90388,-1.17622,,,https://www.cliftonmedicalpractice.co.uk/,UK
stonehouse pharmacy,51.74757,-2.28305,+44 1453 823184,,https://www.pharmacynow.co.uk,UK
the centre for reproductive and genetic health,51.52296,-0.14382,,,https://crgh.co.uk/,UK
cornhill surgery,52.39227,-2.0234,+44 121 4533591,,https://www.cornhillsurgery.com/,UK
eyre medical practice,55.96145,-3.19955,,,https://eyre-medical-practice.co.uk/,UK
boutport medical centre,51.08157,-4.05877,+44 1237 324106,,,UK
barry langton hypnotherapy,52.93884,-1.12567,+44 7505459467,,https://barrylangton.co.uk/,UK
the nottingham centre for transgender health,52.95406,-1.14386,+44 1158 760160,not-tr.gender-services@nhs.net,https://www.nottinghamshirehealthcare.nhs.uk/nottingham-centre-for-transgender-health,UK
the blithehale health centre,51.52377,-0.06485,,,https://www.blithehalemedicalcentre.nhs.uk/,UK
gold standard foot & leg clinic,53.53399,-2.58086,+44 7591 400179,bookings@goldstandardfootandlegclinic.co.uk,https://goldstandardfootandlegclinic.co.uk/index.php/clinics/hindley-clinic/,UK
crew 2000,55.95051,-3.18946,,,http://www.crew2000.org.uk/,UK
anniesland medical practice,55.8919,-4.33274,+44 141 954 8860,,https://annieslandmedical.co.uk/,UK
the delamere medical practice,53.45019,-2.30709,+44 161 864 0200,,http://www.delameremedicalcentre.co.uk,UK
ivel medical centre,52.08855,-0.25945,,,https://www.ivelmedicalcentre.co.uk/,UK
cheriton bishop & teign valley practice,50.65369,-3.65208,+44 1647 24272,,https://www.cheritonbishoppractice.co.uk/,UK
bratton doctors surgery,51.27068,-2.12252,,,https://www.westburygp.co.uk/opening-times.aspx,UK
whitchurch surgery,51.22987,-1.34149,+44 1256 212311,,www.whitchurchsurgery.org.uk,UK
twickenham park surgery,51.45533,-0.31231,+44 20 8892 1991,,https://www.twickenhamparksurgery.co.uk/,UK
rosslyn clinic,51.4553,-0.31257,,,https://www.bpas.org/clinics.php?clinic=49,UK
cloister road surgery,51.52123,-0.2663,+44 20 8992 4331,cloisterroad.surgery@nhs.net,https://www.cloisterroadsurgery.co.uk/,UK
the avenue surgery,51.71351,-1.96479,+44 1285 653122,,https://cirencesterhealthgroup.co.uk/,UK
st anne's hospice,51.61794,-3.00482,,,https://stdavidshospicecare.org/what-we-do/in-patient-services/,UK
the glass house,51.46038,-0.16729,+44 20 7223 7372,,https://www.theglasshouseclinic.co.uk/,UK
counselling london psychotherapy,51.54014,-0.1348,+44 20 7916 1342,,https://www.counselling-london.org.uk/,UK
lepton surgery,53.63377,-1.71061,,,http://www.lepton-kirkheatonsurgeries.nhs.uk/contact1.aspx,UK
maltings surgery,51.75189,-0.33784,+44 1727 855500,,https://www.maltingssurgery.co.uk/,UK
st philips medical centre,51.51371,-0.11514,+44 20 7611 5131,,http://www.lse.ac.uk/intranet/LSEServices/medicalCentre/Home.aspx,UK
bounds green group practice,51.60691,-0.12695,+44 20 8888 1736,,https://www.bggp.co.uk/,UK
tennyson house surgery,51.74894,0.45984,+44 1245 260459,,https://chelmermedicalpartnership.co.uk/,UK
park farm surgery,52.94312,-1.49653,+44 1332 551021,,https://www.macklinstreetsurgery.co.uk,UK
este medical group,55.95611,-3.18976,+44 131 605 0323,,https://www.estemedicalgroup.uk/skin-clinic/edinburgh,UK
kyle surgery,57.28083,-5.71458,,,https://www.kylemedicalpractice.scot.nhs.uk/,UK
the village practice,51.55968,-0.11007,+44 20 7700 6464,,https://www.thevillagepractice.org/,UK
benhill & belmont gp centre,51.36663,-0.19028,,,https://benhillbelmontgpsurgery.co.uk/,UK
the baffins surgery,50.80628,-1.06132,,,http://www.baffinssurgery.org.uk/,UK
links medical centre,55.96916,-3.16415,+44 131 554 1036,,https://www.linksmedicalcentre.scot.nhs.uk/,UK
the goddess clinic,55.9389,-3.18111,,sales@thegoddessclinic.co.uk,https://www.thegoddessclinic.co.uk/,UK
thornley house medical centre,53.44697,-2.07592,,,https://htmc.co.uk/,UK
waterloo house surgery,54.20845,-3.26806,,,https://www.waterloohousesurgery.co.uk/,UK
haverthwaite surgery,54.25161,-2.99336,+44 15395 31619,,https://www.haverthwaitesurgery.co.uk/,UK
your gp,55.95165,-3.21777,,,https://your-gp.com/services/,UK
the new surgery,51.71307,-0.60836,,,https://www.newsurgerychesham.nhs.uk/index.aspx,UK
gladstone surgery,51.71311,-0.60902,,,https://www.gladstonesurgery.co.uk/,UK
burrell street sexual health centre,51.5064,-0.10319,+44 20 7188 6666,,https://www.burrellstreet.co.uk/,UK
the hamilton practice,51.7561,0.11298,+44 1279 215415,,https://www.hamiltonpractice.nhs.uk/,UK
pendre surgery,53.27256,-3.2184,+44 1352 712107,,,UK
elmwood family doctors,53.57831,-1.78383,,,https://elmwoodfamilydoctors.co.uk/,UK
wight chiropractic clinic,55.9454,-3.23697,,,http://www.chiropractorsinedinburgh.net/page/contact_us,UK
bruntsfield chiropractic clinic,55.93481,-3.19454,+44 131 221 9944,,https://www.bruntsfieldchiro.co.uk/,UK
riddings family health centre,53.4045,-2.33125,+44 161 962 9662,,,UK
wellspring surgery,52.96272,-1.13645,,,https://www.wellspringsurgerynottingham.co.uk/,UK
mistylaw medical practice,55.79422,-4.63063,,,https://www.mistylawmedicalpractice.co.uk/,UK
dr n. philips medical practice,52.95637,-1.16746,,,https://www.radfordhealthcentre.nhs.uk/,UK
radford medical practice,52.95643,-1.16741,,,https://www.radfordmedicalpractice.co.uk/,UK
coppull medical practice,53.62004,-2.66198,,,https://www.coppullmedicalpractice.co.uk/,UK
"ndu (""life"") surgery",52.96281,-1.13624,,,https://www.ndusurgery.co.uk/,UK
hope specialist falls & respiratory service,53.57145,-0.06873,+44 1472 313400,,,UK
leap valley surgery,51.49606,-2.48957,+44 117 956 2979,,http://www.leapvalleysurgery.co.uk,UK
south bank medical centre,53.94486,-1.08655,+44 1904 724343,,,UK
william harvey hospital (ashford),51.14058,0.91661,+44 1233 633331,,http://www.ekhuft.nhs.uk/williamharvey,UK
alliance medical,51.5182,-0.15055,,,https://www.alliancemedical.co.uk/,UK
norwich practices health and walk-in centre,52.62632,1.29891,+44 1603 677500,admin.nphc@nhs.net,https://www.norwichwalkincentre.co.uk/,UK
body logic physiotherapy,51.44434,-0.34574,,,https://bodylogicphysio.co.uk/,UK
hanway medical centre,50.80678,-1.07752,,,https://www.hanwaygroup.co.uk/,UK
foot corner,51.43279,-0.46232,,,https://www.footcorner.co.uk/,UK
the vanity clinic,51.43275,-0.46128,+44 1784 665 031,,https://thevanityclinic.co.uk/,UK
the ross practice,51.75598,0.11304,+44 1279 215354,,https://www.therosspractice.co.uk/,UK
blackford clinic,55.92629,-3.18592,,,https://blackfordclinic.co.uk/,UK
torkard hill medical centre,53.03204,-1.20918,,,https://www.torkardhill.co.uk/,UK
cambridge ivf,52.17371,0.11158,,,https://www.cambridge-ivf.nhs.uk/,UK
ayr spinal care centre,55.46238,-4.6344,+44 1292 880892,,https://www.ayrspinalcare.com/,UK
cathcart street practice,55.46383,-4.63374,+44 1292 264051,,https://www.cathcartstreetpractice.scot.nhs.uk/,UK
best foot forward chiropodist,55.45879,-4.63114,+44 1292 619897,,,UK
antenatal babyscan clinic,55.45883,-4.6312,+44 800 9995123,,,UK
ayrshire eye clinic and laser centre,55.45913,-4.63201,+44 1292 282100,,https://www.ayrshireeyeclinic.com/,UK
dalblair medical practice,55.45831,-4.63087,+44 1292 267432,,https://www.dalblairmedicalpractice.co.uk/,UK
castle healthcare practice,52.93047,-1.14534,,,https://www.castlehealthcarepractice.nhs.uk/,UK
musters medical practice,52.93065,-1.14515,+44 115 981 4124,,https://www.mustersmedicalpractice.co.uk/,UK
park view surgery,54.22722,-2.77196,+44 1539 761225,,https://www.parkviewsurgerynhs.co.uk/,UK
stoneleigh surgery,54.22733,-2.77078,+44 1539 563307,,https://ashtreessurgery.co.uk/branches-stoneleigh-surgery/,UK
iskander aeromedical,55.94232,-3.3609,,,https://iskanderaeromedicalltd.co.uk/,UK
rosemead drive & harborough road,52.60029,-1.08048,+44 844 499 2858,,,UK
o2 hyper health,52.37385,-1.25974,,,https://sites.google.com/view/o2hh/home,UK
reeth medical centre,54.38799,-1.94604,+44 1748 884396,,https://www.reeth.org.uk/,UK
edinburgh osteopathic surgery,55.9336,-3.16626,+44 131 667 1234,,https://www.osteos.co.uk/,UK
london fields medical centre,51.53674,-0.06156,+44 20 7923 8100,,https://www.londonfieldsmedical.nhs.uk/,UK
high street surgery,52.48663,1.75511,,,https://www.highstreetsurgerylowestoft.nhs.uk/,UK
jamie bell physio,53.8524,-1.68458,+44 113 318 6313,,http://www.jamiebellphysio.com/leeds-clinic.html,UK
vale practice,51.5814,-0.12587,+44 20 8347 3330,contact@valepractice.com,https://www.valepractice.com/,UK
wigmore lane health centre,51.88878,-0.37155,+44 1582 707333,,,UK
len valley practice,51.23745,0.72339,,,https://www.lenvalleypractice.co.uk/,UK
majestik aesthetics,51.43502,-0.50766,,,https://majestikaesthetics.co.uk/,UK
gower physiotherapy clinic,51.5789,-4.04443,+44 7929923526,,https://www.gowerphysio.co.uk/,UK
clach mhile surgery,56.95489,-7.48634,,,https://www.barramedicalpractice.co.uk/,UK
shepherds bush medical centre,51.50655,-0.23314,+44 20 8743 5153,,https://shepherdsbushmedicalcentre.co.uk/#,UK
finedon health centre,52.33792,-0.65703,+44 1536 723566,,,UK
chiropody clinic,51.50655,-0.23808,+44 20 8749 3456,,https://www.chiropodyclinic.co.uk/,UK
poulton road clinic,53.64851,-2.97045,+44 1704 383200,,,UK
churchtown medical centre,53.66174,-2.9653,+44 1704 224411,,https://www.churchtownmedicalcentre.nhs.uk/,UK
city chiropractic,55.96194,-3.19533,+44 131 558 3535,,https://www.edinburghcitychiropractic.co.uk/,UK
kingsclere medical practice,51.32557,-1.24681,+441635296000,,https://www.kingscleremedicalpractice.nhs.uk/,UK
blacketts medical practice,54.52727,-1.55917,+44 1325 380640,,https://www.blackettsmedical.com/,UK
icash,52.63279,1.2907,+44 300 300 3030,,https://www.icash.nhs.uk/where-to-go/icash-norfolk/oak-street,UK
altrincham hospital,53.38496,-2.35149,+44 161 413 7700,,https://mft.nhs.uk/altrincham/,UK
friary community hospital,54.40511,-1.73841,+44 1748 822109,,,UK
ordnance unity centre for health,51.67211,-0.03933,,,https://www.ouch.surgery/,UK
barclay medical practice fauldhouse,55.82939,-3.7057,+44 1501 773020,,,UK
kentwood clinic,54.32328,-2.74828,+44 1539 716706,,https://www.cumbriapartnership.nhs.uk/where-we-work/kentwood-clinic,UK
herne hill group practice,51.45561,-0.09925,+44 20 7274 3314,,https://www.hernehillgp.nhs.uk/,UK
royal south hants urgent treatment centre,50.91291,-1.39646,+44 3339997613,,,UK
station road medical practice,55.50151,-4.61169,+441292671444,,https://www.stationroadmedicalpractice.co.uk/,UK
stockton heath medical centre,53.37203,-2.58219,+44 1925 604427,,https://stocktonheathmedicalcentre.co.uk/,UK
fitznells manor surgery,51.35199,-0.25214,+44 1372 724434,,https://www.integratedcarepartnership.co.uk/,UK
moorfields eye unit,51.58006,-0.08785,+44 20 7566 2841,,https://www.moorfields.nhs.uk/locations/moorfields-st-anns-hospital,UK
galleries health centre,54.89872,-1.53112,+44 191 543 5555,,http://www.galleriesmedicalpractice.nhs.uk/,UK
bay medical group west end,54.06445,-2.88546,+44 1524 511999,,https://www.baymedicalgroup.co.uk/west-end-surgery,UK
woodlands,52.05863,1.19742,,,https://www.esneft.nhs.uk/wards/ipswich-wards/woodlands/,UK
broseley medical practice,52.61154,-2.48167,+44 1952 882854,,https://www.broseleymedicalpractice.co.uk/,UK
the lady margaret hospital,55.76128,-4.92268,+44 1475 530307,,https://www.nhsaaa.net/hospitals/lady-margaret-hospital/,UK
camrose medical partnership,51.25632,-1.11376,+441256324666,,http://www.camrosemedical.co.uk,UK
restalrig park medical centre,55.965,-3.15737,+44 131 454 2110,,https://www.restalrigparkmedicalcentre.co.uk/,UK
yeadon tarn medical practice,53.86661,-1.68487,+44 113 8879585,,https://yeadontarn.nhs.uk/,UK
aireborough family practice,53.86662,-1.68476,+44 113 3911950,,https://www.aireboroughfamilypractice.nhs.uk/,UK
cressage medical practice,52.63376,-2.59728,+44 1952 511166,,https://www.muchwenlockandcressagemp.co.uk/,UK
fitzwilliam clinic,54.58587,-5.93998,+44 28 9032 3888,,,UK
ashcroft surgery,51.8981,-0.7177,+44 1296 688201,,,UK
castlegate & derwent surgery,54.66592,-3.35871,+44 1900 705350;+44 1900 705750,,https://derwentsurgery.co.uk/,UK
west bridgford medical centre,52.93042,-1.13214,,,https://www.westbridgfordmedicalcentre.nhs.uk/,UK
consett medical centre,54.85122,-1.82808,+44 1207 583400,,https://www.consettmedicalcentre.co.uk/,UK
the cardiff clinic,51.48689,-3.19631,+44 2920 256498,info@thecardiffclinic.co.uk,https://www.thecardiffclinic.co.uk/,UK
leyland surgery,53.69031,-2.70268,+44 1772 529350,,https://www.leylandsurgery.co.uk/,UK
leyland clinic,53.69542,-2.69911,+44 1772 644100,,https://www.lancashirecare.nhs.uk/,UK
sandy lane surgery,53.68977,-2.69512,+44 1772 214700,,https://www.sandylanesurgery.co.uk/,UK
station surgery,53.6982,-2.68997,+44 1772 622 505,,,UK
east leake medical group,52.83213,-1.17619,,,http://www.elmgroupsurgeries.co.uk/,UK
easthampstead surgery,51.40548,-0.75414,,,http://www.easthampsteadsurgery.co.uk/,UK
birley health centre,53.34084,-1.40191,+44 114 235 8038,,https://www.birleyhealthcentre.co.uk/,UK
wragby medical centre,53.28815,-0.30161,+44 1673 858206,,,UK
st. andrew's medical practice,54.69959,-1.59841,+44 1388 817777,,https://www.nhs.uk/Services/GP/Staff/DefaultView.aspx?id=37780,UK
watchet surgery,51.18077,-3.33012,,,https://www.westsomersethealthcare.co.uk/,UK
williton surgery,51.16135,-3.31865,,,https://www.westsomersethealthcare.co.uk/,UK
craiglockhart surgery,55.9119,-3.23762,,,https://www.craiglockhartmedicalgroup.co.uk/,UK
spire (hale),53.37784,-2.34681,+44 161 927 3878,,https://spirehealthcare.com/hale,UK
the fakenham medical practice,52.83938,0.86756,+44 1328 851321,,https://www.fakenham-medical-practice.nhs.uk/,UK
murrayfield medical practice,55.94511,-3.24327,+44 131 337 6151,,"https://www.murrayfieldmedicalpractice.scot.nhs.uk/welcome,59251.htm",UK
papworth surgery,52.25197,-0.11834,+44 1480 830 888,,,UK
the child & family centre,51.53562,0.07936,+44 20 8911 3740,,http://www.childandfamilydoctors-barking.nhs.uk/,UK
irwell medical centre,53.7017,-2.19904,+44 1706 253 422,,,UK
cornwallis plaza surgery,50.85758,0.57819,+44 1424 884410,,http://hastingsgplhc.ic24.org.uk/,UK
gatley green surgery,53.39126,-2.23835,+44 161 428 2514,,http://www.gatleyGreenSurgery.co.uk,UK
gatley physiotherapy clinic,53.39123,-2.23853,+44 161 491 1999,,http://www.gatleyphysioclinic.co.uk/,UK
portobello surgery,55.95164,-3.11074,+44 131 669 8406,,https://portobello-conandoylesurgery.co.uk/,UK
liverpool road health centre,51.88163,-0.42289,,,https://www.leavale.nhs.uk/,UK
meadowside health clinic,55.93521,-3.19443,+44 131 563 3165,,https://www.meadowsidehealth.co.uk,UK
monkseaton medical centre,55.0367,-1.473,+44 191 252 1616,,https://monkseatonmedical.nhs.uk/,UK
greensand health centre,51.25268,0.5284,,,https://www.greensandhealth.co.uk/,UK
leen view surgery,52.99822,-1.19668,,,https://www.leenviewsurgery.co.uk/,UK
parkside medical practice,52.99834,-1.19671,,,https://www.parksidemedicalpractice.co.uk/,UK
st. katharine docks practice,51.50718,-0.06822,+44 20 7488 3653,,https://www.nhs.uk/Services/gp/Overview/DefaultView.aspx?id=36738,UK
angel clinic,54.66399,-2.753,+44 1768 210311,,https://www.cumbria-acupuncture.co.uk/,UK
the james o'riordan medical centre,51.38438,-0.21344,,,https://www.james-oriordan-medical-centre.nhs.uk/,UK
woodlands surgery,54.87958,-1.54816,+44 844 387 8775,,,UK
harraton surgery,54.88098,-1.53117,+44 191 416 1641,,https://www.harratongp.nhs.uk/,UK
barmston medical centre,54.90177,-1.50943,+44 191 419 0333,,https://www.nhs.uk/Services/gp/Overview/DefaultView.aspx?id=44953,UK
the surgery (branston),53.19771,-0.48106,+44 1522 303 600,,https://www.washingboroughfamilypractice.nhs.uk/,UK
cookham medical centre,51.55826,-0.72578,+44 1628 810242,,http://www.cookhamdoctor.co.uk,UK
colliery court medical centre,54.94987,-1.45893,+44 191 519 0077,,https://collierycourt.nhs.uk/,UK
north berwick health centre,56.05568,-2.71863,+44 1620897007,,,UK
shirland road medical centre,51.52916,-0.20367,,,https://www.shirlandroadmedicalcentre.nhs.uk/,UK
weight medics,51.46412,-0.30165,+44 20 7760 7870,,,UK
sisu,51.45859,-0.30593,,,https://www.sisuclinic.com/en-gb/locations/richmond-london,UK
east linton surgery,55.98488,-2.65762,+44 1620 860204,,https://eastlintonsurgery.scot.nhs.uk/,UK
dr k desai's surgery,52.65717,-2.01749,,,http://www.dr-desai-great-wyrley.nhs.uk,UK
quinton practice,52.65702,-2.01757,,,https://www.quintonpractice.nhs.uk/,UK
lynne & anthony metcalff - chiropodist,55.12949,-1.59045,+44 1670 53 1110,,,UK
felton surgery,55.29866,-1.71133,+44 1670 787353,,https://www.feltonsurgery.nhs.uk/,UK
mayfield medical centre,54.97791,-1.49642,+44 191 489 7183,,https://www.mayfieldmedical.co.uk/,UK
monkton hall,54.96645,-1.50289,+44 191 213 0151,,,UK
clarendon,54.98438,-1.50771,,,https://www.stft.nhs.uk/patients-visitors/how-to-find-us,UK
hebburn health centre,54.97337,-1.50764,+44 191 283 1610,,,UK
victoria medical centre,54.97423,-1.52087,+44 191 483 2106,,https://www.victoriamedicalcentrehebburn.nhs.uk/,UK
allingham physiotherapy,55.95666,-3.25841,+44 131 467 9002,,http://www.allinghamphysio.co.uk/,UK
rose lodge,54.96658,-1.52152,+44 191 496 3800,,https://www.ntw.nhs.uk/sites.php?site=17,UK
the skin laser & cosmetic surgery clinic,51.58533,-0.10053,+44 20 8340 8191,,,UK
mitcham family practice,51.41122,-0.16758,+44 20 8648 2432,,https://www.mitchamfamilypractice.nhs.uk/,UK
beacon view medical centre,54.9338,-1.5846,+44 191 4824000,,https://www.beaconviewmedicalcentre.co.uk/,UK
abc4d antenatal babyscan clinic,55.94242,-3.28131,+44 800 999 5123,,https://www.abc4d.co.uk/,UK
kensington international clinic,51.49589,-0.16965,+44 20 7225 2228,,http://www.mintshop.co.uk/,UK
oxford terrace & rawling road medical group,54.95219,-1.61572,,,https://www.otmg.co.uk/,UK
teams medical practice,54.95468,-1.62509,+44 191 460 4239,,https://www.teamsmedicalpractice.nhs.uk/,UK
lauren barker aesthetics clinic,53.23426,-1.44516,,,https://laurenbarkeraesthetics.co.uk/,UK
surgery,52.45878,-0.6114,+44 1536 373283,,,UK
pro active - sports injury,54.64392,-3.5529,+44 1900 268184,,,UK
oxford street surgery,54.64368,-3.55061,+44 1900 603302,,,UK
dermal clinic,55.93228,-3.209,,,https://www.dermalclinic.co.uk,UK
the little green clinc,54.19604,-3.09515,+44 1229 353580,,https://littlegreenclinic.co.uk/,UK
whickham chiropractic clinic,54.9456,-1.68333,+44 191 488 9300,,,UK
whickham chiropody & podiatry,54.94553,-1.68255,+44 191 488 3444,,,UK
the cottage medical centre,54.94527,-1.677,+44 191 488 5555,,https://whickhampractice.nhs.uk/,UK
cedars medical practice,54.90511,-1.73979,+44 1207 272272,,https://www.cedarsmedicalgroup.nhs.uk/,UK
blaydon primary care centre,54.95804,-1.69543,+44 191 283 4600,,https://www.blaydongp.nhs.uk/,UK
institute of sport exercise and health,51.52268,-0.13609,,,https://www.iseh.co.uk/,UK
acupunture therapy centre,51.29552,-0.32717,+44 1372 388 566,,https://www.therealacupuncture.co.uk/,UK
donnington medical practice,52.71508,-2.43699,+44 1952 605252,,https://www.donningtonmedicalpractice.co.uk/,UK
holly hurst surgery,54.95518,-1.7236,+44 191 499 0966,,https://www.hollyhurstmedicalcentre.nhs.uk/,UK
chase medical practice,52.69025,-2.02541,,,http://www.chasemedicalpractice.nhs.uk,UK
steven k epworth chiropodist,52.98394,-1.12156,+44 115 985 6560,,,UK
aspatria medical group,54.76294,-3.33548,,,https://www.aspatriamedicalgroup.co.uk/,UK
plains physiotherapy clinic,52.98234,-1.12414,+44 115 960 6408,info@plainsphysiotherapy.co.uk,https://plainsphysiotherapy.co.uk/,UK
chiropody & podiatry,54.96599,-1.79139,+44 191 413 6611,,,UK
longton hall surgery,52.98285,-2.15649,+44 1782 948988,,https://www.longton-hall-surgery.nhs.uk/,UK
gp private,51.5961,-0.2419,+44 20 8200 8222,,https://www.gpprivate.co.uk/,UK
crookhorn surgery,50.86273,-1.02742,+44 2392 009191,,,UK
east parade medical practice,53.96572,-1.06341,+44 1904 423666,,,UK
front street surgery,53.91558,-1.14124,+44 1904 703314,,,UK
ysj student health centre,53.96516,-1.08007,+44 1904 724775,,https://www.yorkstudenthealthcentre.co.uk/,UK
bishopthorpe surgery,53.92281,-1.09629,+44 1904 706917,,,UK
aspen physiotherapy,54.96136,-1.84551,+44 1661 830980,,,UK
kingston crescent surgery,50.81289,-1.08095,,,https://www.portsdowngrouppractice.co.uk/,UK
physiocare,50.72819,-1.16181,+44 1983 812576,,https://physio-care.com/,UK
wolstanton medical centre,53.03139,-2.21761,+44 1782 627488,,https://www.wolstantonmedicalcentre.nhs.uk/,UK
highcliffe chiropractic clinic,50.74252,-1.69512,+44 1425 277866,,https://www.highcliffechiropractic.co.uk/,UK
traditional chinese treatment centre,54.97241,-1.62002,+44 191 230 5388,,,UK
wansford surgery,52.57966,-0.42011,+44 1780 782342,,https://www.wansfordsurgery.co.uk/,UK
window to the womb,50.72183,-3.53194,+44 1392 758740,,https://windowtothewomb.co.uk/find-a-clinic/exeter-baby-scan-clinic/,UK
westbury medical centre,51.59801,-0.0934,+44 20 8888 3021,,https://www.westbury.nhs.uk/,UK
rose valley medical centre,51.47286,0.04534,+44 20 3875 3519,,https://www.rosevalleymedicalcentre.co.uk/,UK
pendleside medical practice,53.87376,-2.39308,+441200401680,,https://www.pendleside.nhs.uk/,UK
county surgery,52.24882,-0.8736,+44 1604 632918,,https://www.countysurgery.co.uk,UK
holmside medical centre,54.96895,-1.65951,+44 191 273 4009,,https://www.holmsidemedicalgroup.nhs.uk/,UK
wandsworth medical centre,51.45367,-0.19211,+44 20 3006 2741,,https://www.wandsworthmedicalcentre.co.uk/,UK
cumberland house surgery,53.25857,-2.12322,+44 1625 428081,,,UK
frimley green medical centre,51.30275,-0.72554,+44 1252 317551,,https://www.bartlettgrouppractice.co.uk/,UK
stride health,52.89029,-1.45133,,,http://stridehealth.co.uk/,UK
consult healthcare,52.95302,-1.15732,,,https://consult-hc.co.uk/,UK
elswick health centre,54.96932,-1.64048,+44 333 321 8279,,www.graingermedicalgroup.nhs.uk,UK
silverdale,54.97261,-1.6468,+44 191 2875060,,https://www.nhs.uk/Services/clinics/MapsAndDirections/DefaultView.aspx?id=95015,UK
maple view medical practice,52.31648,-1.90561,,,https://www.mapleviewmedicalpractice.co.uk/,UK
park view surgery,53.75473,-2.70162,+44 1772 214744,,,UK
west road medical centre,54.97628,-1.65659,+44 191 282 2890,,https://westroadmedicalcentre.co.uk/,UK
fenham hall medical group,54.98442,-1.66184,+44 191 274 3724,,https://www.fenhamhallmedicalgroup.nhs.uk/,UK
great eccleston health centre,53.85554,-2.8682,+44 1995 670066,,https://www.greateccleston.nhs.uk/,UK
the abbey practice,51.38811,-0.49655,+44 1932 565655,,http://www.abbeypracticechertsey.nhs.uk/,UK
the bridge practice,51.38804,-0.49632,+44 1932 561199,,https://www.nhs.uk/services/clinic/the-bridge-practice/RTK12,UK
walker medical group,54.97266,-1.54526,+44 191 262 0444,,https://walkermedical.nhs.uk/,UK
geoffrey rhodes centre,54.97951,-1.57592,+44 191 282 3411,,https://www.nhs.uk/Services/clinics/MapsAndDirections/DefaultView.aspx?id=96346,UK
heaton road surgery,54.97816,-1.57976,+44 191 265 5911,,https://heatonroadsurgery.nhs.uk/,UK
the dow clinic,54.98286,-1.57579,+44 191 265 0295,,,UK
benfield park surgery,54.98637,-1.55994,+44 191 282 1010,,https://benfieldparkmedicalgroup.co.uk/,UK
liverpool house surgery,53.11212,-4.20842,+441286650223,,,UK
brook medical centre,52.25557,-0.80366,+44 1604 401185,,https://www.thebrookmedicalcentre.co.uk,UK
the medical,51.36496,-2.39332,,,https://www.themedical.co.uk/clinics/bath-city-centre,UK
park road medical practice,54.99228,-1.53133,+44 191 262 5680,,,UK
priory medical group,55.00996,-1.45034,+44 191 257 0223,,https://www.priorymedical.org.uk/,UK
the chiropractor,55.00985,-1.44881,+44 191 258 1229,,,UK
the coast clinic,55.00989,-1.44886,+44 191 258 1229,,,UK
apta vita - physiotherapy & sports injury clinic,55.01052,-1.4483,,,https://www.aptavitaphysiotherapy.com/,UK
the spitalfields practice,51.5174,-0.06962,+44 20 7247 7070,,https://www.thespitalfieldspractice.nhs.uk/,UK
temple house surgery,51.40968,-2.49727,,,https://www.templehousesurgery.nhs.uk/,UK
hatch end medical centre,51.60602,-0.37738,,,https://hatchendmc.co.uk/,UK
appleby surgery,55.01125,-1.45718,+44 191 296 1770,,www.applebysurgery.nhs.uk,UK
manchester travel clinic,53.44067,-2.21518,,,https://www.manchestertravelclinic.co.uk/,UK
bodey medical centre,53.44066,-2.21529,,,http://www.bodeymedical.co.uk/,UK
flansham park health centre,50.7948,-0.62923,+44 1243 210086,,,UK
shoreditch park surgery,51.53343,-0.08699,+44 20 7739 8525,,https://shoreditchparksurgery.com/,UK
well life clinic,51.3291,-0.41125,,,https://www.welllife-clinic.co.uk/,UK
holly road medical centre,51.49282,-0.26039,,,https://www.hollyroadmedicalcentre.nhs.uk/,UK
kingsinch medical practice,55.88141,-4.3839,+44 141 207 7700,,https://www.kingsinchmedicalpractice.scot.nhs.uk/,UK
braehead medical practice,55.88139,-4.38356,+44 141 207 7480,,https://www.braeheadmedicalpractice.co.uk/,UK
the nelson medical practice,51.4107,-0.20881,+44 20 3668 3400,,https://www.nelsonmedicalpractice.co.uk/,UK
parkview centre for health and wellbeing,51.51121,-0.2353,,,https://parkvieww12.co.uk/#,UK
carisbrooke health centre,50.69172,-1.31086,+44 1983 522060,hiowicb-hsi.newporthealthcentre@nhs.net,https://newporthealthcentre.co.uk/,UK
naturally chiropractic,55.01827,-1.4255,+44 191 259 6777,,,UK
heaven therapy,55.03391,-1.43628,+44 191 340 4794,,https://www.heaventherapy.co.uk/,UK
jennifer brown chiropodist,55.03759,-1.43498,+44 191 297 1877,,,UK
ocean health group,50.40489,-4.18875,,,http://oceanhealthgroup.co.uk/,UK
butetown medical practice,51.47048,-3.16961,+44 29 2048 3126,,http://butetowndoctors.co.uk/,UK
bay laser solutions,55.04118,-1.44258,+44 734 067 9045,ask@baylasersolutions.co.uk,http://www.baylasersolutions.co.uk,UK
prince of wales medical centre,51.54652,-0.14692,+44 20 7267 0067,pow@nhs.net,https://www.princeofwalesgrouppractice.nhs.uk,UK
erskine practice,56.46922,-2.96077,+44 1382 458333,,https://www.erskinepractice.scot.nhs.uk/,UK
mill practice,56.46924,-2.96056,+44 1382 456700,,https://www.millpractice.co.uk/,UK
marine avenue surgery,55.04624,-1.45111,+44 191 252 4527,,https://www.49marineavenuesurgery.nhs.uk/,UK
monkseaton chiropractice,55.04128,-1.45942,+44 191 252 2170,,,UK
walk on air chiropody,55.04103,-1.45992,+44 191 251 5226,,,UK
chiropodist,55.0405,-1.46524,+44 191 2510202,,,UK
gch acton care centre,51.50609,-0.27874,+44 20 8896 5600,ActonCareCentre@goldcarehomes.com,https://www.goldcarehomes.com/,UK
moss green surgery,53.01303,-2.12778,+44 1782 231303,,https://www.moorcroftmedical.com/moss-green/,UK
bargoed hall family health centre,51.68463,-3.23058,+44 1443 831211,,,UK
gilfach surgery,51.68449,-3.23052,+44 1443 831150,,,UK
bryntirion surgery,51.68764,-3.23403,+44 1443 830796,,https://bryntirion.gpsurgery.net,UK
london digestive centre,51.51841,-0.14988,,,http://www.theprincessgracehospital.com/patient-information/london-digestive-centre/,UK
upton road surgery,51.65635,-0.40105,+44 1923 226266,,http://www.uptonroadsurgery.nhs.uk,UK
cassio surgery,51.65629,-0.40102,+44 1923 226011,,http://www.cassiosurgery.co.uk/,UK
adult community mental health services,51.65625,-0.40112,+44 1923 837148,,,UK
early memory diagnosis and support service (emdass),51.65619,-0.40117,+44 1923 837154,,,UK
mental health services for older people (mhsop),51.65616,-0.4011,+44 1923 837148,,,UK
trinity podiatry,55.97393,-3.19101,+44 131 476 9889,info@trinitypodiatry.co.uk,https://www.trinitypodiatry.co.uk/,UK
breaclete surgery,58.22789,-6.84206,,,https://www.langabhatmedicalpractice.co.uk/,UK
the montefiore hospital,50.83144,-0.15565,+44 1273 828 120,,https://www.spirehealthcare.com/Montefiore/,UK
the private gp clinic,51.23549,0.23869,+44 1732 835212,,https://theprivategpclinic.co.uk/,UK
woodview medical practice,54.6128,-1.80411,,,https://www.woodviewmedicalpractice.nhs.uk/,UK
langabhat medical practice,58.15189,-6.5025,+44 1851 860222,,,UK
monksfield surgery,52.27383,-1.1596,+44 1327 706606,,,UK
st lukes & greenswood medical center,50.39423,-3.51778,+44 1803 852731,stlukesmedicalcentre@nhs.net,http://www.stlukesmedicalcentre.co.uk,UK
morningside medical practice,55.93021,-3.21,+44 131 452 8406,,https://www.morningsidemedicalpractice.co.uk/,UK
dalmally surgery,56.40278,-4.96128,+44 1838 200 204,,,UK
total care physio,52.52509,1.50972,+44 1508 548535,,,UK
national slimming & cosmetic clinics,50.80241,-1.08754,+44 2392 814033,,https://www.nscclinics.co.uk/,UK
wayfield road surgery,51.35942,0.53007,+44 1634 406607,,,UK
cosham osteopathic clinic,50.8464,-1.06762,+44 2392 200000; +44 7811 945195,,https://www.privatehealth.co.uk/hospitals-and-clinics/cosham-osteopathic-clinic/contact/,UK
radnor street surgery,55.86654,-4.28936,+44 141 334 6111,,https://www.radnorstreetsurgery.com/,UK
halstead sports injury and physiotherapy clinic,51.94541,0.63887,+44 1787478789,reception@halsteadphysiotherapyclinic.co.uk,https://www.physioclinichaverhill.com/,UK
babybond ultrasound direct,50.84376,-1.06749,+44 2392 382025,,https://www.ultrasound-direct.com/,UK
garry trainer clinic,51.5401,-0.15121,,,https://garrytrainer.com/,UK
inclusion drug and alcohol rehabilitation centre,52.22582,0.1255,+44 300 555 0101,,https://www.inclusion.org/services/inclusion-cambridgeshire-cambridge/,UK
dance podiatry/chiropody,55.94196,-3.29987,+44 131 334 1966,,http://www.dancepodiatry.com,UK
inverurie chartered physiotherapy clinic and pilates centre,57.22452,-2.34111,+44 1467 633444,info@icpchealth.com,https://www.icpchealth.com/,UK
the foot therapy centre,50.70105,-1.29552,+44 1983 822655,,,UK
buryfields sexual health clinic,51.23177,-0.57685,+44 1483 783340,,https://www.sexualhealth.cnwl.nhs.uk/clinics/buryfields-clinic/,UK
cranbrook medical centre,50.74817,-3.41527,+44 1404 819207,,https://cranbrook.accesshealthanddental.co.uk/,UK
southgates medical centre,52.74737,0.40676,,,https://www.southgatesandwoottonssurgeries.nhs.uk/,UK
manfield health campus,52.26514,-0.86349,+44 1536 480300,,,UK
newcastle medical centre,54.97486,-1.61425,,,https://www.newcastlemedical.co.uk/,UK
bellingham green surgery,51.4305,-0.02403,+44 20 8697 7285,,http://bellinghamgreensurgery.co.uk/,UK
fawley surgery,51.44886,-0.98428,,,https://www.undeniably-podiatry.co.uk/reading.html,UK
raon mheadaiceach cheann a tuath na hearadh,57.89919,-6.80867,,,https://www.northharrismedicalpractice.co.uk/,UK
ladywell medical centre east,55.9408,-3.28837,+44 131 334 5000,,https://www.ladywelleast.co.uk/,UK
arden medical practice,55.80626,-4.33159,+44 141 638 1464,,https://www.ardenmedicalpractice.scot.nhs.uk/,UK
st. augustine surgery,51.42312,-2.49452,,,https://www.st-augustinessurgery.co.uk/,UK
leatherhead clinic,51.29583,-0.31953,+44 1372 384300,,https://www.cshsurrey.co.uk/our-services/location/leatherhead-clinic,UK
samedaydoctor,51.49953,-0.01891,,,https://samedaydoctor.org/clinic/canary-wharf/,UK
belmont surgery,51.82473,-3.09281,,info.crickhowell@wales.nhs.uk,https://www.crickhowellhealthcentre.org.uk/,UK
lydney & district hospital,51.72841,-2.53848,+44 300 421 8722,,,UK
cowes medical centre,50.75107,-1.30175,+44 1983 290 979,,https://www.boots.com/EStoreStoreDetailNonAjaxView?storeLocatorStoreId=5413,UK
cardiovascular healthcare,50.7666,0.28585,+44 1323 410400,,,UK
park farm medical centre,52.94432,-1.49569,,,https://www.parkfarm-medical.co.uk/,UK
cariad chiropractic,52.08211,-4.66114,+44 1239 621 822,,https://cariadchiropractic.com/,UK
grosvenor clinic,50.90391,-1.06493,+44 2392 233288,,https://grosvenor-clinic.co.uk/,UK
barton surgery,50.74578,-1.66112,+44 1425 620830,,https://www.bartonsurgery.nhs.uk/,UK
walker & hall chartered physiotherapists,53.56544,-2.88825,+44 1695 570002,,https://www.walkerandhall.co.uk/,UK
maywa clinic,53.80683,-1.58372,+44 113 278 6688,,https://www.maywa.co.uk,UK
risborough therapy clinic,51.72515,-0.83257,,,https://www.risboroughtherapy.co.uk/,UK
aurora,51.72461,-0.83192,,,https://www.aurora-clinics.co.uk/,UK
appletree osteopath,51.7246,-0.83171,,,https://appletreeosteopaths.co.uk/,UK
stronglines physiotheraphy,52.29702,-0.67495,+44 1933 228 520,info@stronglines.co.uk,https://stronglines.co.uk/,UK
comberton & eversden surgeries,52.1552,0.00807,,,https://www.combertonandeversdensurgery.nhs.uk/,UK
day surgery centre,51.46903,-0.09309,+44 20 3299 3483,,,UK
russell street surgery,51.45174,-0.98306,+44 1189079976,,,UK
british hair clinic,51.63081,0.32871,,,https://www.britishhairclinic.com,UK
optimus,51.60707,-2.52592,,,https://www.optimuscp.com/,UK
st john's hill surgery - begg practice,51.45989,-0.17934,,,https://www.stjohnshillsurgery.nhs.uk/,UK
hull & east riding fertility,53.71945,-0.45893,+44 1482 689040,,https://www.hulleastridingfertility.co.uk/,UK
wells city practice,51.20391,-2.65539,,,https://www.wellscitypractice.nhs.uk/,UK
maple access practice,52.23675,-0.89099,+44 1604 250969,,https://www.mapleaccess.org.uk,UK
northampton laser clinic,52.24287,-0.87407,,,https://www.northamptonlaserclinic.co.uk/,UK
chiltern house,51.63347,-0.75235,+44 1494 439149,,https://www.chilternhousemedicalcentre.co.uk/,UK
oak glen surgery,53.85422,-1.81984,,,https://www.oakglensurgery.nhs.uk/,UK
back in motion,53.6812,-2.66223,+44 1772 431777,,https://www.backinmotion.co.uk/,UK
cambridge dialysis unit,52.21644,0.15642,,,https://www.nephrocare.co.uk/clinic/cambridge,UK
doctor now,51.5994,-0.63581,,,https://doctornow.org/,UK
thornton road & valley park surgery,51.38804,-0.12077,,,www.thorntonroadsurgery.co.uk,UK
zest,54.32938,-2.74693,,,https://www.zestskincentre.co.uk/,UK
fishergate hill surgery,53.75414,-2.7153,+44 1772 254484,,https://www.fishergatehill.org.uk/,UK
skin science clinic,51.52232,-0.14478,+44 20 7971 7764,,https://skinscienceclinic.co.uk/,UK
healthy balance,51.70349,-0.707,,,https://www.healthy-balance.co.uk/,UK
central health,52.91341,-1.40605,,,https://www.centralhealth.org.uk/,UK
cambridge access surgery,52.20871,0.13866,,,https://www.mhcambridgeaccess.co.uk/,UK
high road surgery,51.55389,0.00498,+44 20 8532 8460,,,UK
st. james medical centre,51.38194,-0.09306,,,https://www.stjamesmedicalcentre.nhs.uk/,UK
the crescent medical centre,52.25006,-0.87817,+44 1604 713434,,,UK
the brook medical centre,52.1272,-0.99159,+44 1327 323 900,,https://www.brookhealthcentre.co.uk,UK
mawsley village surgery,52.37651,-0.81084,+44 1536 791300,,https://www.mawsleymedical.co.uk,UK
weavers medical centre,52.40115,-0.73383,+44 1536 513494,,https://www.weaversmedicalcentre.co.uk/,UK
eskdaill medical centre,52.40111,-0.73423,+44 1536 526526,,https://www.eskdaillmedical.co.uk,UK
kingsthorpe medical centre,52.25801,-0.8922,+44 1604 713823,,,UK
clarence avenue surgery,52.25494,-0.89842,+44 1604 718464,,,UK
queensview medical centre,52.25377,-0.90186,+44 1604 713315,,https://www.Queensviewmedicalcentre.co.uk,UK
langham place surgery,52.24742,-0.89746,+44 1604 638 162,,https://www.langhamplacesurgery.co.uk/,UK
kings heath & lings brook practice,52.25603,-0.92095,+44 1604 589897,,https://www.kingsheathpractice.nhs.uk,UK
delapre health centre,52.21957,-0.90286,+44 1604 708481,,https://www.eleanorcrosshealthcare.co.uk,UK
rillwood medical centre,52.26382,-0.83677,+44 1604 405006,,,UK
moulton surgery,52.28594,-0.85273,+44 1604 790108,,https://www.moultonsurgery.co.uk,UK
park avenue medical centre,52.25759,-0.87088,+44 1604 716500,,https://parkavenuemedicalcentre.co.uk/,UK
earls barton medical centre,52.26498,-0.75847,+44 1604 813940,,https://www.4mygp.info,UK
archway surgery,51.72293,-0.53265,,,https://www.archwaysurgery.co.uk/,UK
camberwell sexual health centre,51.47104,-0.09323,,,https://www.kch.nhs.uk/service/a-z/sexual-health,UK
breast screening,51.47116,-0.09324,+44 20 3299 3381,,https://www.kch.nhs.uk/service/a-z/breast-screening,UK
portobello health hub,55.95412,-3.11662,+44 131 285 3551,,https://portobellohealthhub.co.uk/,UK
cathays surgery,51.49531,-3.18212,,,https://www.cathayssurgery.co.uk/,UK
mersham medical centre,51.40414,-0.09639,+44 20 8653 1869,,https://www.mershammedicalcentre.co.uk/,UK
revive healthy living centre,52.93113,-1.44871,,,https://revivehealthylivingcentre.co.uk/,UK
north chelmsford nhs healthcare centre,51.75229,0.51411,+44 300 123 3366,meccg.nchc@nhs.net,https://nchc.gpsurgery.net/,UK
total foot care,51.62661,-0.76456,,,https://www.total-foot-care.co.uk/,UK
church view medical centre,50.93595,-2.95865,,,https://www.churchviewmc.nhs.uk,UK
woodcote medical,51.34122,-0.12424,+44 20 8763 5620,,https://www.woodcotemedical.nhs.uk/,UK
leeds private trichology clinic,53.80034,-1.5407,,,http://www.theprivatetrichologyclinic.co.uk/,UK
mulgrave road surgery,51.35834,-0.19629,+44 20 8407 3600,,https://www.mulgraveroadsurgery.nhs.uk/,UK
shirley clinic,51.37812,-0.06105,,,https://www.croydonhealthservices.nhs.uk/a-to-z-of-services/service/health-visitors-for-older-people-shirley-clinic-98/,UK
addiscombe road surgery,51.37647,-0.06039,,,https://www.addiscomberoadsurgery.nhs.uk/,UK
wick health centre,51.54732,-0.03739,+44 20 8986 6341,CAHCCG.WickHC@nhs.net,https://www.thewickhealthcentre.co.uk/,UK
the assessment centre,57.14316,-2.11146,+44 800 288 8777,,https://chdauk.co.uk/,UK
hillbank health centre,56.46836,-2.97474,+441382221976,,https://www.hillbankhealthcentre.co.uk/,UK
optimax london,51.54759,-0.1799,,,https://www.optimax.co.uk/clinic_locations/london_finchley_road,UK
church hill surgery,52.42847,1.22898,,,https://www.churchhillsurgery.co.uk/,UK
lordshill health centre,50.94035,-1.44883,,,https://www.lordshillhealthcentre.nhs.uk/,UK
sutton health clinic,51.3439,-0.19821,,,https://www.benhillbelmontgpsurgery.co.uk,UK
the salt cave,55.95746,-3.16123,,,https://saltcave.co.uk/,UK
cavendish clinic & medispa,51.51675,-0.1402,,,https://www.cavendishclinic.co.uk/,UK
prime health,51.34179,-0.46436,+44 1932 504999,,https://www.prime-health.co.uk/location/surrey/,UK
sk:n clinics,51.51705,-0.14591,,,https://www.sknclinics.co.uk/clinics/london/london-harley-street,UK
medicare unit surgery,53.72533,-2.69244,+44 1772330724,,,UK
moda aesthetics,53.6534,-2.63623,,,https://www.modaclinic.co.uk/,UK
intrigue cosmetic clinic,51.39708,0.29994,+44 3333 660 303,enquiries@intriguecosmeticclinic.com,https://www.intriguecosmeticclinic.com/,UK
spinex disc clinic,51.51169,-0.07595,,,https://www.spinexdiscclinic.com/,UK
space healthcare,52.29348,-1.53677,,,https://www.space-healthcare.com/,UK
urban village medical practice,53.482,-2.22263,+441612725656,nmccg.uvmp@nhs.net,https://uvmp.co.uk/,UK
synexus thames valley clinic,51.42091,-0.97418,,,https://www.synexusclinic.co.uk/our-clinics/the-thames-valley-clinic/,UK
wellington women's clinic,51.52295,-0.1486,,,https://www.thewellingtonwomensclinic.co.uk/,UK
ultrasound diagnostic services,51.52298,-0.14861,,,https://uds.uk.com/,UK
harley street breast clinic,51.52298,-0.14855,,,http://www.theharleystreetbreastclinic.co.uk/,UK
pelaw medical practice,54.95454,-1.54109,+44 191 4692337,,https://www.pelawmedicalpractice.nhs.uk,UK
the harley street spine clinic,51.52254,-0.14843,,,https://www.harleystreetspineclinic.com/,UK
the london allergy clinic,51.51737,-0.14773,,,https://www.londonallergyclinic.com/,UK
clinic 1.6,51.51742,-0.14769,,,https://cliniconepointsix.com/,UK
melior clinics,51.51827,-0.14679,,,https://www.meliorclinics.co.uk/find-a-clinic/harley-street-london-botox-clinic/,UK
crookes chiropody - podiatry,53.38417,-1.50797,,,https://www.crookeschiropody.com/,UK
liphook village surgery,51.07608,-0.80261,,,https://www.swanmedicalgroup.co.uk/liphook-village-surgery-hampshire-doctors/,UK
schoen clinic,51.5163,-0.14988,,,https://www.schoen-clinic.co.uk/london,UK
gillian house surgery,51.62202,-0.10581,,,https://www.gillanhousesurgery.co.uk/,UK
derby skin care & cosmetic clinic,52.92482,-1.49001,,,https://derbyskinlaserclinic.co.uk/,UK
edinburgh chiropractic clinic,55.9574,-3.18747,+44 131 538 3286,,https://www.edinburghchiropractic.co.uk/,UK
vaishaly,51.52061,-0.15333,+44 204 509 9700,,https://www.vaishaly.com/,UK
earlsfield practice,51.43866,-0.18737,+44 20 8946 5681,,https://www.earlsfieldpractice.co.uk/,UK
oaklands surgery,50.95422,-2.61649,+44 1935 709269,,http://www.yeovilhealthcentre.nhs.uk/,UK
cathedral medical centre,52.41347,0.27504,+44 1353 669923,,https://www.cathedralmedicalcentre.com,UK
wollaston therapy centre,52.25812,-0.66134,+44 1933 664444,info@wollastontc.co.uk,https://www.wollastontc.co.uk/,UK
willowbrook medical practice,53.12273,-1.26783,+44 1623 440018,,https://www.willowbrookmp.co.uk,UK
amwell surgery,51.76002,-0.01327,+44 1992 464147,,https://www.amwellsurgery.co.uk/,UK
mauldeth medical centre,53.435,-2.21369,+44 161 4346678,,,UK
central surgery,54.97157,-1.41545,,,https://www.centralsurgerysouthshields.nhs.uk/,UK
newcastle surgery,51.51098,-3.59248,+441656652721,,https://www.ashfieldsurgerybridgend.co.uk/,UK
brunswick,50.82352,-0.13958,+44 1273 054690,,https://brunswickfinewines.com,UK
alastair ross medical practice,53.58241,-2.38422,+44 1204 463800,,https://www.alastairross.nhs.uk/,UK
the burnside surgery,53.59599,-2.42965,+44 1204 462930,,https://www.burnsidesurgery.nhs.uk/,UK
cv health,51.62186,-0.77033,+44 1494 412525,,,UK
knoll medical practice,51.37572,0.1012,,,https://www.knollmedicalpractice.co.uk,UK
harmony clinic,52.15862,1.37492,,,https://www.harmonyclinic.org/,UK
hawkshead surgery,54.37458,-2.99688,,,https://www.centrallakesmedicalgroup.co.uk/,UK
trichologist solutions,51.97959,-0.22682,+44 7488 398417,trichologistdeon@gmail.com,https://www.trichologistsolutions.com/,UK
create fertility,51.41001,-0.22828,,,https://www.createfertility.co.uk/,UK
braithwaite surgery,53.47649,-2.57493,+441942718221,,https://www.nhs.uk/Services/GP/Overview/DefaultView.aspx?id=40554,UK
health centre,51.52632,-0.20551,+44 20 8660 5499,,,UK
yoxford branch surgery,52.26637,1.50951,,,https://www.leistonsurgery.com/,UK
half penny steps health centre,51.52622,-0.20623,+44 20 8962 8700,,https://www.halfpennystepshc.nhs.uk/,UK
town gate practice sedbury,51.63962,-2.65765,+44 1291 626 041,admin.tg@wales.nhs.uk,,UK
physio on the river,51.47233,-0.25286,,,https://www.physio-on-the-river.co.uk,UK
marble arch med centre,51.51903,-0.16921,+44 20 7723 5424,,http://www.marblearchmed.co.uk/,UK
isca medical centre,51.61073,-2.95647,+44 1633 423 886,Practice.manager.w93018@wales.nhs.uk,https://www.iscamedicalcentre.co.uk/,UK
newburn surgery,54.98591,-1.74355,,,https://www.newburnsurgery.com/,UK
saville medical group,54.97612,-1.60933,,,https://savillemed.co.uk/,UK
oldwood surgery,50.98505,0.47113,,,https://www.oldwoodsurgery.co.uk/,UK
hca uk at docklands,51.50263,-0.01961,+44 20 7516 1999,,https://www.hcahealthcare.co.uk/facilities/london-bridge-hospital/hospital-campus/hca-uk-at-docklands,UK
aspire medical centre,51.53257,0.05013,,,https://www.aspiremedicalcentre.nhs.uk/,UK
medicetics,51.51441,-0.16587,+44 20 7402 2033,,https://www.medicetics.com/,UK
foot rescue chiropody & podiatry clinic,50.6287,-1.17977,+44 1983 867147;+44 7909 641958,,,UK
medwyn medical practice,55.69601,-3.68998,+44 1555 870512,,https://www.medwynmedicalpractice.co.uk/,UK
bayswater medical centre,51.51356,-0.17954,+44 20 3441 3002,,,UK
castle medical practice,51.87618,-0.41428,+44 1582 399444,,https://castlestreetsurgeryluton.co.uk/,UK
croft view surgery,54.82335,-1.74615,,,https://www.browneyhousesurgery.com/location/morris-lane-surgery/,UK
albany medical centre newport,51.5875,-2.99979,+44 1633 243 533,info@albanyclinic.co.uk,https://www.albanyclinic.co.uk/,UK
tanyfron primary care (gp),52.23793,-4.25766,+44 1545 570271,,https://www.tanyfronsurgery.co.uk/,UK
springview,53.33332,-3.02705,,,https://www.cwp.nhs.uk/our-services/our-sites/wirral-sites/springview,UK
london professional aesthetics,51.52422,-0.09383,,,https://193whitecrossstreet.london,UK
corstorphine footcare,55.94062,-3.28386,+44 131 334 1769,,,UK
castlegate medical practice,51.80957,-2.71811,+44 1600 713 811,admin.W93036@wales.nhs.uk,https://castlegatemedicalpractice.nhs.wales/,UK
exe valley osteopathy,50.90593,-3.46856,,,https://www.exevalleyosteopathy.co.uk/,UK
grantley medical practice,55.82595,-4.28648,+44 141 632 4698,,,UK
scarsdale medical centre,51.49941,-0.1919,+44 20 7938 1887,,https://scarsdalemedicalcentre.nhs.uk/#,UK
cardigan health centre,52.08887,-4.66272,+44 1239 612021,,https://www.cardiganhealthcentre.com/,UK
buckingham terrace medical practice,55.87786,-4.28911,+44 141 211 6210,,https://www.buckinghamterracemedicalpractice.co.uk,UK
abc blood tests,52.49745,-1.98459,+44 7410099000,,https://abcbloodtests.com/,UK
abc travel clinic,52.49746,-1.98459,+44 7410099000,,https://abctravelclinic.com/,UK
richmond medical group,51.47952,-0.27873,+44 20 8876 4442,,https://richmondmedicalgroup.co.uk/,UK
chinese medicine centre,50.82703,-0.14207,+44 1273 749977,,,UK
lawns medical practice,52.37874,1.10905,+44 1379 642021,,https://www.lawnsgp.com/,UK
parish fields practice,52.37875,1.10889,+44 1379 642023,,https://www.parishfields.co.uk/,UK
chiropractic alchemy,51.52029,-0.21035,+44 20 8960 5485,,https://chiropracticalchemy.co.uk/,UK
brook square surgery,54.28168,-0.40923,+44 1723 360098,,,UK
nova recovery,55.79085,-4.86021,,info@novarecovery.co.uk,https://novarecovery.co.uk,UK
uned dialysis arennol / renal dialysis unit,51.86793,-4.28581,+44 1267 228061,carmarthen.clinics-gb@fmc-ag.com,https://www.nephrocare.com/clinic/carmarthen,UK
meanwhile garden medical centre,51.52219,-0.20242,,,https://www.meanwhilegardenmedicalcentre.co.uk/,UK
the golborne medical centre,51.52401,-0.2066,+44 20 8964 4801,,https://www.golbornemedical.nhs.uk/,UK
optimax,54.97105,-1.60974,+44 191 640 2245,,https://www.optimax.co.uk/clinics/the-north-scotland-northern-ireland/newcastle-mosley-street/,UK
audiology,51.86769,-4.28378,+44 1554 783188,,,UK
teehey lane medical centre,53.35299,-3.02314,+44 151 608 2519,,https://www.teeheymcwirral.nhs.uk/,UK
nad cell clinic,51.52112,-0.14927,+44 330 0414748,john@nadcell.com,https://nadcell.com/nad-treatment.html,UK
harrow talking therapies,51.58976,-0.3325,,,https://talkingtherapies.cnwl.nhs.uk/harrow,UK
national migraine centre,51.51228,-0.21247,,,https://www.nationalmigrainecentre.org.uk/,UK
anerley surgery,51.40905,-0.06062,+44 20 8659 9343,,https://www.anerleysurgery.co.uk/,UK
littleton surgery,51.3689,-0.36513,+44 1372 462235,,https://www.littletonsurgery.co.uk/,UK
southern medical group,55.91566,-3.15104,,,https://www.southernmedicalgroup.co.uk/,UK
kensington physio & sports medicine,51.50002,-0.21128,+44 20 7603 0040,,https://www.kenphysio.com/about/locations/kensington-russell-gardens/,UK
mackworth surgery,52.92361,-1.51924,,,https://www.horizonhealthcare.nhs.uk/,UK
leacroft medical practice,51.12741,-0.1978,+44 1293 574 747,,https://www.leacroft.co.uk/,UK
marshalls road surgery,52.34478,-0.53754,+44 1933 622349,,,UK
the parks medical practice,52.18974,-0.88793,+44 1604 434747,,https://www.theparksmedicalpractice.co.uk,UK
abington medical centre,52.25324,-0.86661,+44 1604 723420,,https://www.abingtonmedicalcentre.co.uk,UK
bpas northampton central,52.23863,-0.89036,+44 345 730 4030,,www.bpas.org,UK
care fertility (northampton),52.23584,-0.87704,+44 1604 608771,,https://www.carefertility.com/,UK
st matthews hospital,52.25145,-0.87847,+44 1604 723530,,https://smhc.uk.com/,UK
the slimming clinic,52.23897,-0.89267,+44 1604 239111,,,UK
aurora at the gatehouse,52.23833,-0.87622,+44 1604 875040,,https://www.theprivateclinic.co.uk,UK
the county clinic,52.23842,-0.87777,+44 1604 795410,,,UK
sk:n - northampton cheyne walk,52.23749,-0.888,+44 330 037 7489,,https://www.sknclinics.co.uk/,UK
broomhill,52.32094,-0.96107,,,https://smhc.uk.com/,UK
risedale surgery,54.11045,-3.22528,,,https://www.risedalesurgery.co.uk/,UK
abbey road surgery,54.11038,-3.22485,,,https://www.abbey-practice.co.uk/,UK
atkinson health centre,54.11024,-3.22497,,,https://www.atkinsonhealthcentrepractice.nhs.uk/,UK
first step,54.11036,-3.22516,,,https://www.cntw.nhs.uk/services/first-step/,UK
parkhall surgery,52.38311,-0.00214,+44 1487 740888,riverport.medicalpractice@nhs.net,https://www.riverportmedicalpractice.co.uk/,UK
old school surgery,51.09837,0.53631,+44 1580 712476,,https://www.oldschoolsurgerycranbrook.nhs.uk/,UK
claypit street medical practice (churchmere medical group),52.97317,-2.67888,+44 1948 320044,,https://www.nhs.uk/Services/GP/MapsAndDirections/DefaultView.aspx?id=153318,UK
whitwick health centre,52.74269,-1.36073,,,https://www.whitwickhealthcentre.co.uk/,UK
kensington eye centre,51.50369,-0.19211,+44 20 7937 8282,,https://www.kensingtoneyecentre.co.uk/,UK
marie curie hospice,53.37372,-2.86435,+441518011400,,https://www.mariecurie.org.uk/help/hospice-care/hospices/liverpool,UK
the sandringham practice,51.54812,-0.06687,+44 20 7275 0022,,https://www.sandringhampractice.nhs.uk/,UK
dalston practice,51.54804,-0.06686,+44 20 7275 0077,,https://www.dalstonpractice.co.uk/,UK
whiston road surgery,51.534,-0.0773,+44 20 7739 8625,,https://www.southgateandwhistonpractice.nhs.uk/,UK
whitchurch road surgery,51.50308,-3.19105,+44 2920 621 282,,https://111.wales.nhs.uk/localservices/ViewLocalService.aspx?id=4758&s=GPs,UK
guildhall surgery,52.0792,0.5804,,,https://www.guildhallsurgery.co.uk/,UK
lawton house surgery,53.16307,-2.20576,+44 1260 275454,,https://www.lawtonhousesurgery.nhs.uk/,UK
bodyvie,51.46586,-0.29888,+44 20 7100 0744,,,UK
tanhouse nhs clinic,52.53579,-1.94173,,,https://www.nhs.uk/Services/gp/Overview/DefaultView.aspx?id=44333,UK
lockside medical centre,53.48515,-2.04691,+44 1613037200,lockside@nhs.net,https://www.locksidemedical.co.uk/,UK
kensington therapy centre,51.49955,-0.19676,,,https://kensingtontherapycentre.co.uk,UK
group practice,51.49758,-0.19753,+44 20 7938 5488,,http://www.thegrouppractice.com/,UK
deby mitchell,55.04096,-1.46251,,,https://dmrelationship.co.uk/,UK
stanley medical centre,56.48306,-3.44435,+44 1738 828294,,https://www.stanleymedicalcentre.co.uk/,UK
wimbledon medical practice,51.41756,-0.1982,+44 20 8542 2827,,https://www.wimbledonmedicalpractice.co.uk/,UK
woodseats medical centre,53.33999,-1.48029,+441142850140,,https://www.woodseatsmedicalcentre.nhs.uk/,UK
the new malden diagnostic centre,51.41051,-0.26139,,,https://www.hcahealthcare.co.uk/facilities/the-harley-street-clinic/centres-and-teams/new-malden-outpatients-and-diagnostics,UK
welbourn hall nursing and residential home,53.07239,-0.5583,,,https://www.careplushomes.com/welbourn-hall/,UK
readesmoor medical centre,53.16386,-2.21673,,,https://www.readesmoor.co.uk/,UK
ardcroft medical clinic,55.80237,-4.06681,,,https://ardcroftmedicalclinic.co.uk/,UK
oxford adhd & autism centre,51.75832,-1.21059,+44 1865 744144,,,UK
the manor clinic,51.07986,1.17314,+44 1303 851122,kmccg.themanorclinic@nhs.net,https://manorclinic.co.uk/,UK
londoncryo,51.5184,-0.07857,,info@londoncryo.com,,UK
delooze hearing,55.42226,-2.78709,+44 1450 550124,,https://deloozehearing.co.uk/,UK
candwr brook medical centre,51.62989,-2.96974,+44 1633 423972,admin.w93018@wales.nhs.uk,https://111.wales.nhs.uk/localservices/viewlocalservice.aspx?id=109,UK
west london medical centre,51.52577,-0.45341,+44 1895 233 881,,https://londongp.org.uk/,UK
usk medical centre,51.70247,-2.90364,+44 1291 672 753,Enquiries.w93038@wales.nhs.uk,http://www.uskmedicalcentre.wales.nhs.uk/home,UK
chelsea medical services,51.49229,-0.18312,,,https://www.chelseamedicalservices.co.uk/#,UK
wellspring gp surgery,51.45581,-2.56132,+44 117 9557711,,https://www.wellspringsurgerybristol.nhs.uk/,UK
fortius clinic wimbledon,51.42064,-0.21002,+44 20 3195 2442,,https://www.fortiusclinic.com/locations/fortius-clinic-wimbledon,UK
cowbridge health centre,51.46381,-3.44822,+44  1446 772383,,,UK
enfield island surgery,51.6683,-0.01678,,,https://www.enfieldislandsurgery.nhs.uk/,UK
yapton surgery,50.82173,-0.61404,+44 1243 551321,,https://www.avisford.co.uk/,UK
cotswold physiotherapy,51.8919,-2.07775,+44 1242 228019,,https://www.physiocheltenham.co.uk/,UK
the chorley surgery,53.65143,-2.63326,+44 1257 513970,,https://www.thechorleysurgery.com/,UK
margaret street surgery,51.79465,-3.98872,+44 1269 592 477,,https://www.margaretstreetsurgery.wales.nhs.uk/,UK
the southgate surgery,51.6403,-0.14266,,,https://www.thesouthgatesurgerynorthlondon.nhs.uk/,UK
gabalfa clinic,51.5014,-3.19638,+44 2920 693 941,,https://cavuhb.nhs.wales/hospitals-and-health-centres/health-centres/gabalfa-clinic/,UK
north west cancer centre,54.98652,-7.29066,+44 28 7161 1320,,https://westerntrust.hscni.net/hospitals/north-west-cancer-centre/,UK
the sloane street surgery,51.49626,-0.159,,,https://sloanestreetsurgery.co.uk/,UK
framfield house surgery,52.09027,1.30822,,,https://www.framfieldhouse.com/,UK
renal unit,54.98902,-7.2904,,,https://westerntrust.hscni.net/service/renal-services/,UK
south wight medical practice,50.63741,-1.25976,,,https://southwightmedicalpractice.nhs.uk/,UK
the smart clinics,51.49488,-0.17401,+44 20 7052 0070,,https://kensingtonpodiatry.co.uk/,UK
the spencer clinic of trichology,51.49457,-0.17389,+44 20 7584 4255,,https://www.spencerclinic.co.uk/,UK
south kensington gp clinic,51.49376,-0.17335,+44 20 7591 1300,,http://www.southkensingtongpclinic.com/location/,UK
premier podiatry,55.90232,-3.64377,+44 1506 636285,,,UK
westfield medical centre,51.61016,-3.00671,+44 1633 855 521,,https://111.wales.nhs.uk/localservices/ViewLocalService.aspx?id=5031&p=np194tU&s=GPs,UK
morecambe surgery,51.61719,-0.08578,+44 20 8803 0020,,https://www.morecambesurgery.nhs.uk/,UK
brompton medical centre,51.48936,-0.19009,+44 20 7373 4102,,https://www.bromptonmedicalcentre.nhs.uk/,UK
malpas brook health centre,51.59991,-3.00308,+44 1633 855 808,Enquiries.Malpasbrookhc@wales.nhs.uk,https://111.wales.nhs.uk/LocalServices/ViewLocalService.aspx?id=5008,UK
elysium private health brighton,50.85284,-0.16634,,,https://www.elysiumhealthcare.co.uk/,UK
earls court surgery,51.48879,-0.19184,+44 20 7373 0140,,https://www.earlscourtsurgery.co.uk/#,UK
guy gold performance centre,51.54914,-0.14074,+44 20 7018 7180,,https://www.guygolds.com/,UK
the women's wellness centre,51.48395,-0.18484,+44 20 7751 4488,,https://www.womenswellnesscentre.com/,UK
medina healthcare,50.72422,-1.23107,+44 1983 522198,hiowicb-hsi.medinahealthcare@nhs.net,https://medinahealthcaresurgery.nhs.uk/,UK
golf road surgery,51.22994,1.39932,+44 1304 367495,golfroadsurgery.deal@nhs.net,https://www.doctors-surgery-deal-kent.co.uk/,UK
wellfield health centre,53.60693,-2.14749,+44 1706 397600,,https://wellfieldhealthcentre.co.uk/,UK
pontoon dock health centre,51.50199,0.03034,+44 20 8104 2222,,,UK
northway clinic,51.51486,0.00972,+44 20 3405 0860,,https://northwayclinic.co.uk,UK
ibroxholm medical centre,55.85068,-4.30506,+44 141 427 2504,,https://www.ibroxholm.co.uk/,UK
the vale surgery,51.5065,-0.25207,+44 20 8743 4086,,https://www.thevalesurgery.nhs.uk,UK
hounslow urgent care centre,51.47383,-0.32478,+44 20 8321 6700,,https://www.nhs.uk/Services/clinics/Services/DefaultView.aspx?id=46786,UK
ultrasound direct,53.19996,-2.87699,+44 1244 621100,,https://www.ultrasound-direct.com/location/north-west/chester/,UK
physiotherapy - musculoskeletal service,51.54262,0.00693,,,https://www.elft.nhs.uk/services/physiotherapy-musculoskeletal-service-newham,UK
mayfield surgery,52.98268,-2.1346,+44 1782 315654,,,UK
23md,51.49127,-0.16723,+44 20 7078 0302,,https://23md.co.uk/,UK
cotgrave surgery,52.91058,-1.03599,,,https://www.belvoirhealthgroup.co.uk/branches/cotgrave-surgery/,UK
chiropody & podiatry surgery,52.54616,-1.92991,+441213601426,,,UK
waverton gp surgery,53.17079,-2.81707,+44 1244 335071,,,UK
belgrave medical centre,52.97896,-2.13222,+44 1782 593344,,https://www.bmcgp.co.uk/,UK
sarah chapman,51.49293,-0.15854,+44 20 7589 9585,,https://www.sarahchapman.com/,UK
mill lane surgery,55.97471,-3.17675,,,https://www.milllanesurgery.co.uk/,UK
ladywell medical centre west,55.94043,-3.28931,+44 131 334 3602,,https://www.ladywellwest.co.uk/,UK
sloane square medical,51.49206,-0.1577,+44 20 7730 8835,,https://www.sloanesquaremedical.org/,UK
the haven practice,50.84277,-0.14263,+44 1273 555999,,https://www.thehavenpractice.co.uk/,UK
david whitehead ent,51.5171,-0.14625,+44 20 7183 0220,,,UK
royal arsenal medical centre,51.49237,0.07349,+44 20 8854 0356,,https://royalarsenalmedicalcentre.co.uk/,UK
practice plus,50.82372,-0.14306,,,https://www.practiceplusbrightonstation.nhs.uk/,UK
otterfield road medical centre,51.51451,-0.47076,+44 1895422611,,,UK
the clinic canton,51.48203,-3.20518,+44 29 2115 8543,,https://thecliniccanton.com,UK
bronllys clinic,52.00703,-3.25797,+44 1874 711 255,powys.geninfo@wales.nhs.uk,https://pthb.nhs.wales/hospitals-and-centres/south-powys/bronllys-hospital/,UK
abbey court surgery,54.34531,-6.65255,,,https://www.nidirect.gov.uk/services/gp-practices/abbey-court-surgery-dr-marshall-and-partners,UK
kirkhall surgery,55.50188,-4.60937,,,https://kirkhallsurgery.co.uk/,UK
the lea surgery,51.5484,-0.04288,+44 20 8986 3106,,https://www.leasurgery.co.uk/,UK
tessa jowell health centre,51.45931,-0.08049,,,https://selondonccg.nhs.uk/in-your-area/southwark/tessa-jowell-health-centre/,UK
elmbank group practice,57.15272,-2.14427,+44 3453 370 710,,https://elmbankpractice.scot.nhs.uk/,UK
westburn medical group,57.15264,-2.14406,+44 3450 995757,,https://westburnmedicalgroup.co.uk,UK
commonwealth village medical practice,55.8463,-4.20523,+44 141 531 1000,,https://www.nhsggc.org.uk/locations/gp-surgeries/commonwealth-village-medical-practice/,UK
private walk-in clinic,51.50197,-0.22967,+44 20 8746 0830,,,UK
denbridge surgery,55.91824,-4.33205,+44 141 942 9494,,https://www.denbridge-surgery.org.uk/,UK
physio two hereford,52.04124,-2.73964,+44 1432 359089,,,UK
ad injury clinic,56.01406,-3.7894,+44 1324 626462,,,UK
tooting medical center,51.42023,-0.16121,,,https://sw11clinic-clapham.co.uk/,UK
tonbridge medical group,51.19323,0.27142,+44 1732 352907,,https://www.tonbridgemedicalgroup.co.uk/,UK
silverdale surgery,54.16887,-2.82639,+44 1524 720000,,https://ashtreessurgery.co.uk/branches-silverdale-surgery/,UK
newbury street practice,51.59872,-1.42607,,,https://www.newburystreetpractice.co.uk/,UK
church street practice,51.59872,-1.42568,,,https://wantagechurchstreet.co.uk/,UK
penwortham st. mary's medical group,53.74837,-2.73036,+441772 214800,,https://stmaryshealthcentre.co.uk,UK
atelier,51.43269,-0.54505,+44 1784 431745,,https://www.atelier.clinic/,UK
masham surgery,54.22198,-1.65598,+44 1765 689317,,https://www.kirkbyandmashamsurgeries.co.uk,UK
shortstown surgery,52.11138,-0.42984,+44 1234 743000,,https://www.shortstown.net/,UK
mapesbury medical group,51.55152,-0.20947,+44 20 8452 7646,,https://mapesburymedicalgroup.co.uk/,UK
bettws health centre,51.61272,-3.02842,+44 1633 256337,Bellevue.Enquiries@wales.nhs.uk,https://111.wales.nhs.uk/LocalServices/ViewLocalService.aspx?id=73&locale=en,UK
lakes medical centre,53.39223,-2.31124,,,https://thelakesmc.co.uk/,UK
south wigston health centre,52.58032,-1.12967,+44 116 278 2028,,https://www.swhealthcentre.co.uk,UK
central surgery,53.45668,-2.74247,+44 1744 627660,,https://www.centralsurgerysthelens.co.uk,UK
ormskirk house surgery,53.45668,-2.74266,+44 1744 624808,,https://www.ormskirkhousesurgery.co.uk,UK
newholme surgery,53.45677,-2.74255,+44 1744 621 730,,https://www.newholmesurgery.nhs.uk/,UK
parkfield surgery,53.45676,-2.74271,+44 1744 624 880,,https://www.parkfieldsurgery.co.uk/home/,UK
atlas medical practice,53.45517,-2.72432,+44 1744 752521,,https://www.parkhousesurgerysthelens.nhs.uk/,UK
edgeley medical practice,53.40316,-2.17685,+44 161 426 5333,,https://www.stockportmedicalgroup.nhs.uk/,UK
pimlico osteopathy,51.4922,-0.12579,+44 20 7834 6229,contact@pimlicoosteopathy.com,https://www.pimlicoosteopathy.com/,UK
fit & skin studio,57.14352,-2.1102,+44 1224 959800,info@fitandskinstudio.co.uk,https://fitandskinstudio.co.uk/,UK
care oncology clinic,51.52001,-0.14726,,,https://careoncologyclinic.com/,UK
the cornerstone practice,52.5489,0.09117,+441354606300,,https://www.cornerstoneandmercheford.nhs.uk/,UK
abc chiropractic,55.89321,-3.31996,,,https://www.abc-chiropractic.co.uk/,UK
edinburgh sports injury clinic,55.90198,-3.28786,,,https://esic.co.uk/,UK
dermadoc clinic,51.50104,-0.22223,+44 20 7183 1921,,https://www.dermadoc.co.uk/dermadoc-hammersmith.php,UK
brook green clinic osteopath,51.49747,-0.22316,+44 20 7610 5459,,https://www.brookgreenclinic.com/,UK
spa float therapy,52.28978,-1.53145,+44 1926 772421,info@spafloat.co.uk,https://www.spafloat.co.uk/,UK
"ward 4b, leverndale hospital",55.83629,-4.36876,+44 141 211 6511,,,UK
minor injuries unit,53.37933,-1.49276,+44 114 271 2071,,https://sheffieldurgentcare.co.uk/minor-injuries-unit.html,UK
ab10 clinic,57.14027,-2.11369,+44 1224 583356,,https://ab10clinic.com/,UK
brighton health and wellbeing centre,50.82532,-0.15691,+44 1273 772020,,https://www.brightonhealthandwellbeingcentre.co.uk/,UK
levitas clinic,51.37103,-0.36342,,,https://levitasclinic.com/,UK
ashtree medical centre,52.42389,-1.92137,+44 121 458 1031,,http://www.ashtreemedicalcentre.co.uk/contact1.aspx?p=M85131,UK
the leigh surgery,51.55519,0.65596,,,https://www.nhs.uk/services/gp-surgery/the-leigh-surgery/F81696,UK
clarendon medical practice & angel medical center,53.4884,-2.28502,+44 161 983 0190,,https://www.clarendonsurgery.co.uk,UK
springhead health ltd,51.43576,0.34069,+44 1474 543100,,https://www.springheadhealth.co.uk/,UK
sterndale surgery,51.4983,-0.22099,+44 20 7602 3797,,https://sterndalesurgery.co.uk/#,UK
the tolsey surgery,51.57079,-2.21354,+44 1666 840270,,https://www.tolseysurgery.co.uk/,UK
the hall practice,51.60705,-0.56103,+44 1753 989800,,https://calcotmedicalcentre-hallpractice.co.uk/,UK
the allan practice,51.60706,-0.56099,+44 1753 887311,,https://www.calcotmedicalcentre.co.uk/,UK
the chalfonts and gerrards cross hospital,51.60729,-0.56142,+44 1753 883821,,http://www.buckshealthcare.nhs.uk/visiting-your-hospitals/visiting/chalfonts-and-gerrards-hospital/,UK
clear ear clinic,51.51739,-0.14768,,,http://clearearclinic.com/,UK
colindale medical centre,51.5912,-0.24845,+44 20 8205 6798,,https://colindalemedicalcentre.nhs.uk/,UK
livingstone community hospitals,51.44223,0.22676,+44 1322 622374,,https://www.nhs.uk/Services/Hospitals/Overview/DefaultView.aspx?id=NDAJ0,UK
william harvey hospital,51.14157,0.91648,+44 1233 633331,,https://www.nhs.uk/Services/hospitals/Overview/DefaultView.aspx?id=RVV01,UK
st anne's centre & emi wards,50.88692,0.56467,+44 1424 758101,,,UK
acton lane medical centre,51.50168,-0.26558,+44 20 8995 5706,,https://actonlanemedicalcentre.nhs.uk/,UK
newcastleton health centre,55.18155,-2.81235,,,https://www.newcastletonhc.co.uk,UK
st pauls clinic,51.58292,-2.99391,,patient.support.w93039@wales.nhs.uk,https://stpaulsclinic.com/,UK
yz aesthetics,51.58549,-2.99438,+44 7491 068 666,,,UK
riverside medical practice,52.70854,-2.75778,,,https://www.riverside-medical.co.uk/,UK
norfolk and norwich university hospital:emergency department,52.61733,1.22097,+44 1603 286286,,https://www.nnuh.nhs.uk/departments/accident-and-emergency/,UK
the malthouse surgery,51.67196,-1.28294,+44 1235 468860,,https://www.malthousesurgery.co.uk/,UK
cobham day surgery,51.33476,-0.4079,+44 1932 588400,,,UK
cobham health centre,51.33479,-0.40861,+44 1932 867231,,https://cobhamhealthcentre.nhs.uk,UK
goodman's field medical practice,51.51307,-0.06876,+44 20 7702 2036,thccg.goodmansfieldhealthcentre@nhs.net,https://goodmansfieldgp.co.uk/,UK
numiscan,51.9048,0.1943,,,https://www.numiscan.co.uk/,UK
white valley centre,51.61484,-2.96379,+44 1633 436 831,S.CAMHS.ABB@wales.nhs.uk,http://www.richmondclinic.wales.nhs.uk/news/44668,UK
adolescent unit,51.61485,-2.96472,+44 1633 436 831,S.CAMHS.ABB@wales.nhs.uk,https://abuhb.nhs.wales/healthcare-services/community-services/mental-health/child-and-adolescent-mental-health-camhs/information-for-young-people/,UK
renew,52.29285,-1.53492,+44 1926 422454,,https://www.renewskinandhealthclimic.co.uk/,UK
silverdale family practice,54.80028,-1.41031,,,https://silverdalefamilypractice.nhs.uk/,UK
kettering osteopaths,52.39328,-0.72801,+44 1536 512927,,https://www.ketteringosteopaths.co.uk,UK
minor injuries unit,51.13535,-0.00076,,,https://www.qvh.nhs.uk/our-services/minor-injuries-unit/,UK
old swan walk-in centre,53.41132,-2.91658,+443001001004,,https://www.merseycare.nhs.uk/our-services/our-sites/liverpool/old-swan-walk-centre,UK
proactive prosthetics,51.18781,-0.60276,,,https://www.proactiveprosthetics.co.uk/,UK
whiting bay surgery,55.48281,-5.0934,+44 1770 600516,,https://www.arranmedical.co.uk,UK
lamlash medical centre,55.53014,-5.13012,+44 1770 600516,,https://www.arranmedical.co.uk,UK
shiskine surgery,55.51838,-5.30911,+44 1770 600516,,https://www.arranmedical.co.uk,UK
brodick health centre,55.57695,-5.14685,+44 1770 600516,,https://www.arranmedical.co.uk,UK
lambeth walk group practice,51.49562,-0.1125,,,https://lambethwalkgp.co.uk/,UK
leith surgery,55.97038,-3.17156,+44 131 554 6471,,https://www.leithsurgery.scot.nhs.uk/,UK
viva skin clinics,51.12843,0.26195,+44 20 3733 2199,bookings@vivaskinclinics.com,https://www.vivaskinclinics.com/skin-and-aesthetics-clinic-tunbridge-wells-kent/,UK
southgate physio,51.63252,-0.14272,,,https://www.southgatephysio.co.uk/,UK
opendoor,51.58099,-0.12351,,,https://opendooronline.org,UK
rivermead gate medical centre,51.74084,0.47305,+44 1245 348688,rivermeadgate.admin@nhs.net,https://www.rmgmc.co.uk/,UK
viva skin clinics,51.47948,-0.18746,,bookings@vivaskinclinics.com,,UK
ealing hearing centre,51.50396,-0.3183,+44 800 002 5777,info@ealinghearing.co.uk,https://www.ealinghearing.co.uk/,UK
white lodge medical practice,51.65855,-0.08784,+44 20 8363 4156,,https://www.whitelodgemedicalpractice.nhs.uk/,UK
brook,50.26276,-5.04907,+44 300 303 0714,,https://www.brook.org.uk/service/brook-penhaligon-house/,UK
the three spires medical practice,50.26006,-5.05587,+44 1872 272272,,https://threespiresmedical.co.uk/,UK
lander medical practice,50.26003,-5.05543,+44 1872 243700,,https://landermedicalpractice.co.uk/,UK
the marina surgery,51.61721,-3.93592,+44 1792643000,,https://www.grovemedicalcentre.wales.nhs.uk/,UK
skyline medical clinic,51.5143,-0.3371,+44 20 8126 7766,,https://www.skylinemed.co.uk/,UK
st agnes surgery,50.31097,-5.20187,,,https://www.stagnessurgery.co.uk/,UK
the park medical centre,53.40097,-2.28813,+44 1619985538,,https://www.parkmedicalcentrewythenshawe.nhs.uk/,UK
daneburgy avenue surgery,51.45237,-0.24865,,,https://www.daneburyavenuesurgery.co.uk/,UK
flotta surgery,58.82552,-3.096,+44 1856 701 769,,,UK
wimbledon village doctor's surgery,51.42501,-0.21963,+44 20 8946 4820,,https://www.wimbledonvillagesurgery.co.uk/,UK
my:skyn clinic,53.79873,-1.82622,+44 1274 921121,enquiries@myskyn.co.uk,https://myskyn.co.uk/,UK
manor medical practice,53.79878,-1.82638,+44 1274 484111,,https://www.manor-bradford.co.uk/,UK
marple medical practice,53.39512,-2.06566,+44 161 983 5375,stoccg.marplemedicalpractice@nhs.net,https://www.marplemedicalpractice.nhs.uk/,UK
forest health care,51.82685,-2.50789,+44 1594 820820,,https://www.foresthealthcentre.nhs.uk,UK
dockham surgery,51.82694,-2.50756,+44 1594 820010,,https://dockhamsurgery.nhs.uk,UK
mya cosmetic surgery,51.73586,0.47327,,,https://www.mya.co.uk/,UK
newson health,52.18956,-1.70901,,,https://www.newsonhealth.co.uk/,UK
chelmsford central health hub,51.73624,0.46634,+44 1245 516963,,,UK
cleveland clinic london,51.51939,-0.14407,+44 20 3423 7500,,https://clevelandcliniclondon.uk/patients/appointments,UK
the baby skan studio,50.26263,-5.05762,+44 1872 261006,,https://www.thebabyskanstudio.com/,UK
sangam surgery,51.55424,0.0557,,,https://www.sangamsurgery.nhs.uk/,UK
the mole clinic,55.95438,-3.19743,,,https://www.themoleclinic.co.uk/,UK
baldwins lane surgery,51.65404,-0.44865,+44 1923 774732,,https://newroadsurgery.info/,UK
wales laser clinic,51.58544,-2.9964,+44 1633 214 674,,https://waleslaserclinic.com/,UK
skin medspar clinic,51.50643,-0.26445,,,http://www.skinmedspa.co.uk/,UK
perfect podology,55.12718,-1.50602,,perfectpodology@gmail.com,https://perfectpodology.wixsite.com/perfectpodology,UK
werrington health centre,52.62079,-0.27154,+441733578231,,https://www.nhs.uk/services/gp-surgery/werrington-health-centre/X37703,UK
the white house surgery,51.08743,1.14597,+44 1303 275434,,https://www.whitehousefolkestone.nhs.uk/,UK
rejuvenating solutions ltd,55.76713,-2.00465,+44 1289385119,,,UK
therapie clinic,56.45971,-2.97383,+44 8000 121565,,https://www.therapieclinic.com/,UK
earl soham surgery,52.22404,1.27408,,,https://www.framlinghamsurgery.co.uk/,UK
framlingham surgery,52.22711,1.33275,,,https://www.framlinghamsurgery.co.uk/,UK
dounby surgery,59.06715,-3.23164,+44 1856 771209,,,UK
3d aesthetics,52.29338,-1.53345,+44 1926 315764,,https://www.3dlipoleamingtonspa.com/,UK
london sperm bank,51.50512,-0.08897,,,https://www.londonspermbank.com/,UK
london women's clinic,51.50509,-0.08887,,,https://www.londonwomensclinic.com/,UK
london egg bank,51.50506,-0.08878,,,https://www.londoneggbank.com/,UK
castleview surgery,51.59835,-0.07516,+44 20 8801 1515,,https://www.brucegrovephcc.nhs.uk/,UK
bridge street surgery,52.60296,0.37562,,,https://www.bridgestreetsurgery.co.uk/,UK
pimlico health,51.48832,-0.13799,,,https://www.pimlicohealth.co.uk/,UK
vanbrugh group practice,51.48552,0.0084,+44 333 332 7300,,https://vanbrughgps.co.uk/,UK
harrow road gp practice,51.55846,0.0082,,,https://www.harrowroadgppractice.nhs.uk/,UK
hca healthcare,51.50406,-0.08626,,,https://www.hcahealthcare.co.uk/,UK
boroughloch medical practice,55.94128,-3.1772,+44 131 229 7529,,https://www.boroughlochmedicalpractice.com/,UK
dalkeith road medical practice,55.94136,-3.17703,+44 131 667 1289,,https://dalkeithroad.gpsurgery.net/,UK
the hollies surgery,52.60403,0.37503,,,https://www.vidahealthcare.nhs.uk/the-hollies-surgery,UK
new kirk clinic,55.92021,-4.33295,+44 141 942 3030,hello@newkirkclinic.com,https://www.newkirkclinic.com,UK
disley podiatry clinic,53.35931,-2.03845,+44 1663 765571,enquiries@disleypodiatry.co.uk,https://disleypodiatry.com/,UK
rosefield clinic,52.2905,-1.52827,+44 1926 430455,,,UK
lemoge clinic,51.54727,-0.17962,+44 20 7794 7080,,https://lemogeclinic.co.uk,UK
ear care service,53.41337,-2.34441,+44 300 323 0303,,https://mft.nhs.uk/community/trafford-services/ear-care/,UK
northgate health centre,51.75292,-1.25798,+44 1865 311811,,https://www.northgatehealthcentre.co.uk/,UK
mwh practice - hounslow,51.47169,-0.39378,,,https://www.mwhpractice.co.uk/,UK
castlederg group surgery,54.70734,-7.59103,+44 28 8167 1411,,https://westernruralhealthcare.co.uk/,UK
the york medical practice,51.4494,-0.32557,+44 20 8744 0220,,https://yorkpractice.co.uk,UK
footsteps,52.91515,-0.6445,,,https://www.footstepsgrantham.co.uk/,UK
clearer ears hitchin,51.9107,-0.29237,,,https://clearerears.com/ear-clinics/clearer-ears-preston-village-hitchin/,UK
ringland medical practice,51.59462,-2.93258,+44 1633 277 011,,https://ringlandmedicalpractice.co.uk/,UK
alway health centre,51.58666,-2.94469,+44 1633 277 771,beechwoodsurgery@wales.nhs.uk,https://111.wales.nhs.uk/LocalServices/ViewLocalService.aspx?id=7297,UK
brechin medical practice,56.73346,-2.6527,+44 1356 624411,,https://www.brechinmedicalpractice.co.uk/,UK
ty bryn surgery,51.59173,-3.19036,,,https://111.wales.nhs.uk/localservices/viewlocalservice.aspx?id=4969,UK
health centre bedwas,51.59141,-3.19859,+44 2920 833 300,,https://meddygfatridwr.co.uk/,UK
chelmsford osteopathic practice,51.73351,0.47951,+44 1245 963333,info@chelmsfordosteopathicpractice.co.uk,https://chelmsfordosteopathicpractice.co.uk/,UK
kinmylies medical practice,57.47277,-4.25664,,,https://www.kinmyliesmp.org.uk/,UK
lower monmouthshire community mental health team,51.6402,-2.67954,+44 1291 636 700,,https://www.monmouthshire.gov.uk/care/mental-health/,UK
oakfield street surgery,51.64185,-3.23475,+44 1443 812 979,,,UK
the carse medical practice,56.40043,-3.20265,+44 1821 642248,,https://carsemedicalpractice.co.uk/index.aspx,UK
the muswell hill practice,51.59111,-0.1409,+44 20 8365 3303,,https://www.themuswellhillpractice.co.uk,UK
belfast skin clinic,54.56653,-5.94705,,,https://belfastskinclinic.com/,UK
dyfi valley health,52.59024,-3.84629,+44 1654 702224,,https://www.dyfivalleyhealth.org/,UK
royal wharf clinic,51.50196,0.02982,,,https://www.royalwharfclinic.co.uk/,UK
sarah crawford advanced aesthetics,51.47676,0.02091,+44 20 8293 3939,sarahcrawfordaesthetics@outlook.com,https://www.sarahcrawfordaesthetics.com/,UK
martins oak,50.91751,0.48355,+44 1424 772060,,https://www.martinsoak.co.uk,UK
bruce grove primary health care centre,51.59215,-0.07006,+44 20 8808 4710,,https://www.brucegrovephcc.nhs.uk/,UK
the vine medical centre,51.27081,0.51437,+44 1622 754898,,https://www.thevinemedicalcentre.co.uk/,UK
health barn clinic,51.74142,-0.35711,+44 1727 833698,,http://www.naturaltherapyclinic.co.uk/,UK
bower mount medical practice,51.27478,0.50958,+44 1622 756721,,https://www.bowermountmedical.co.uk/,UK
lauren turner aesthetics,51.46597,0.00922,,,https://www.aestheticsbylaurenturner.com/,UK
atman clinic,51.15558,0.25986,,,https://atmanclinic.co.uk/,UK
strathpeffer medical practice,57.59486,-4.43038,,,https://strathpeffermedicalpractice.co.uk/,UK
