Name,Type,Phone Number,Email,Physical Address,Latitude,Longitude,Region
ABC4D Antenatal Babyscan Clinic,Clinic,+44 800 999 5123,,"2 Kirk Loan, Edinburgh",55.942417,-3.281306,UK
Accident & Emergency,Clinic,,,,51.324934,-0.272324,UK
Accident and Emergencies,Clinic,,,,52.582538,-1.999938,UK
Actice Chiropract Centre,Clinic,,,"Wylam Street, Jarrow",54.981774,-1.490433,UK
Acupunture Therapy Centre,Clinic,+44 1372 388 566,,"53 High Street, Leatherhead, KT22 8AG",51.295524,-0.327171,UK
Albert Road Osteopaths,Clinic,,,,52.636323,-1.69334,UK
Alliance Medical,Clinic,,,,51.518195,-0.15055,UK
Allingham Physiotherapy,Clinic,+44 131 467 9002,,"53 Strachan Road, Edinburgh",55.956663,-3.258411,UK
Andrew Bird Hearing Centre,Clinic,,,,51.902052,-2.117457,UK
Angel Clinic,Clinic,+44 1768 210311,,"3 Little Dockray, Penrith, CA11 7HL, GB",54.663987,-2.752996,UK
Anne Connolly Osteopath,Clinic,,,,57.062567,-4.124748,UK
Antenatal Babyscan Clinic,Clinic,+44 800 9995123,,"Dalblair Road, Ayr",55.458828,-4.6312,UK
Arch Clinic,Clinic,,,,50.928691,-1.79232,UK
Ashton Health Centre,Clinic,,,,53.766295,-2.741389,UK
Asquith Surgery,Clinic,,,693 Welford Road,52.600384,-1.115894,UK
Aston Kidney Treatment Centre,Clinic,,,,52.497576,-1.881614,UK
Ayr Spinal Care Centre,Clinic,+44 1292 880892,,"84 Sandgate, Ayr, KA7 1BX",55.462381,-4.634405,UK
Ayrshire Eye Clinic and Laser Centre,Clinic,+44 1292 282100,,"40 Dalblair Road, Ayr, KA7 1UL",55.459131,-4.632013,UK
BSDAS,Clinic,,,59-61 Stokes Croft,51.462346,-2.590352,UK
BUPA,Clinic,,,"29 Park Place, Leeds, LS1 2SP, GB",53.797678,-1.552863,UK
Back to Health,Clinic,,,,52.695442,-2.448926,UK
Ballenden House,Clinic,,,"28-30 Howden Street, Edinburgh",55.944531,-3.182333,UK
Battersea Rise Surgery,Clinic,,,,51.460841,-0.163246,UK
Bedale Health Clinic,Clinic,,,,54.287182,-1.593753,UK
Belfast Chiropractic Clinic,Clinic,,,,54.578387,-5.918714,UK
Best Foot Forward Chiropodist,Clinic,+44 1292 619897,,"47 Dalblair Road, Ayr, KA7 1UF",55.458793,-4.631136,UK
Birkbeck Clinic,Clinic,,,,51.467503,0.13354,UK
Birmingham Treatment Centre,Clinic,,,,52.487453,-1.929707,UK
Blackford Clinic,Clinic,,,"60 Blackford Avenue, Edinburgh",55.926286,-3.185918,UK
Blackthorn Medical Centre,Clinic,,,,51.26818,0.486568,UK
Blaydon Primary Care Centre,Clinic,+44 191 283 4600,,"Shibdon Road, Blaydon-on-Tyne, NE21 5NW",54.958041,-1.69543,UK
Blood Donor Centre,Clinic,,,,53.408202,-2.988522,UK
Bodowen Surgery,Clinic,,,,53.270107,-3.217193,UK
Body Logic Physiotherapy,Clinic,,,"8 Staines Road, Twickenham, TW2 5AH",51.444335,-0.345742,UK
Bowen Health,Clinic,,,,55.598007,-2.433604,UK
Bridge Street Dental & Skin Clinic,Clinic,,,"21 Bridge Street, Driffield, YO25 6DB",54.007861,-0.439899,UK
Brighton Laser Clinic,Clinic,+44 1273 686869,,"56A Marine Parade, BN2 1PN",50.81905,-0.129546,UK
Brighton Station Health Centre,Clinic,,,"84-87 Queen's Road, Brighton, BN1 3XE",50.827934,-0.141362,UK
Bristol Adult Cystic Fibrosis Centre,Clinic,,,,51.458924,-2.596212,UK
Bristol Eye Hospital Assessment Clinic,Clinic,,,BS1 3XB,51.456256,-2.590585,UK
Bristol Physiotherapy Sports Injury Clinic#,Clinic,,,,51.451073,-2.592496,UK
Bromley Park medical Centre,Clinic,,,,51.399553,0.061443,UK
Brougham Foot Clinic,Clinic,,,"7 Brougham Street, Edinburgh, GB",55.94335,-3.202842,UK
Bruntsfield Chiropractic Clinic,Clinic,+44 131 221 9944,,"43 Bruntsfield Place, Edinburgh, EH10 4HJ",55.934806,-3.194537,UK
Burrell Street Sexual Health Centre,Clinic,+44 20 7188 6666,,"4-5 Burrell Street, London, SE1 0UN",51.506401,-0.103189,UK
Butler Green Enhanced Intermediate Care Unit,Clinic,,,"Wallis Street, Oldham, OL9 8NG",53.530984,-2.145253,UK
CREATE Fertility,Clinic,,,"150 Cheapside, London, EC2V 6ET",51.514924,-0.096929,UK
Camberley Health Centre,Clinic,+44 1276 20101,,"159 Frimley Road, Camberley, GU15 2QA",51.324468,-0.754099,UK
Cambridge IVF,Clinic,,,,52.17371,0.111582,UK
Capital Physio,Clinic,,,,51.496756,-0.125969,UK
Central Health,Clinic,+44 20 7404 6343,,"5-9 Quality Court, London, WC2A 1HP",51.516799,-0.111864,UK
Centre for Clinical Haematology,Clinic,,,,52.453613,-1.941271,UK
Chalkhill Primary Care Centre,Clinic,+44 20 8736 7128,,,51.563868,-0.276702,UK
Charlestown Health Centre,Clinic,,,,53.522867,-2.191211,UK
Child & Adolescent Mental Health Service,Clinic,,,,52.138653,-0.461774,UK
Chiropodist,Clinic,,,Park Road,54.854682,-1.835321,UK
Chiropody & Podiatry,Clinic,+44 191 413 6611,,"Greenside Road, Crawcrook",54.965994,-1.79139,UK
Chiropody Clinic,Clinic,+44 20 8749 3456,,"424 Uxbridge Road, London, W12 0NR",51.506551,-0.238075,UK
Chiropractic Clinic,Clinic,,,,51.817113,-2.289615,UK
Chorlton Health Centre,Clinic,,,,53.443841,-2.279569,UK
City Chiropractic,Clinic,+44 131 558 3535,,"44 Rodney Street, Edinburgh",55.961943,-3.195328,UK
Clarendon,Clinic,,,"Wagonway Road, Hebburn, NE31 1AT",54.984381,-1.50771,UK
Clarendon Park Medical Centre,Clinic,,,,52.613906,-1.124445,UK
Common Wheel,Clinic,,,"1055 Great Western Road, Glasgow, G12 0XH",55.88284,-4.318446,UK
Community Diagnostic Clinic,Clinic,,,,54.955824,-1.669764,UK
Complete Chiropody,Clinic,,,,52.475322,-2.07508,UK
Core Strength Studios,Clinic,,,,51.450712,-2.588643,UK
Cornbrook Medical Centre,Clinic,+44161 872 8129,,"63 Booth Street West, Manchester, M15 6PR",53.467012,-2.239727,UK
Cornwallis Plaza Surgery,Clinic,+44 1424 884410,,"Station Approach, Hastings, TN34 1BA",50.857578,0.578187,UK
Counselling London Psychotherapy,Clinic,+44 20 7916 1342,,"21 Rossendale Way, London, NW1 0XB",51.540139,-0.134796,UK
Courtyard Physiotherapy & Chiropractic Clinic,Clinic,,,,51.682092,-2.356764,UK
Coventry North Community Mental Health Team,Clinic,,,,52.444595,-1.484423,UK
Crew 2000,Clinic,,,"32-32A Cockburn Street, Edinburgh",55.950507,-3.189462,UK
Crombie House,Clinic,,,Hockliffe Street,51.917434,-0.657371,UK
Crouch End Health Centre,Clinic,,,"45 Middle Lane, London",51.581833,-0.123843,UK
Crown Clinic,Clinic,,,"Bailey Lane, Manchester, M90 4AB",53.371378,-2.273771,UK
Cygnet,Clinic,,,"37A High Street, Cambridge, CB24 3BP",52.279705,0.046483,UK
Darwen Health Centre,Clinic,,,,53.695807,-2.471431,UK
Day Case Unit,Clinic,,,,54.985682,-7.294239,UK
Derby Medical Centre,Clinic,,,,51.334229,-0.266472,UK
Dermal Clinic,Clinic,,,"21-23 Church Hill Place, Edinburgh, EH10 4BE",55.932281,-3.208997,UK
Duke Street Medical Centre,Clinic,,,,53.378574,-1.455666,UK
Edinburgh Osteopathic Surgery,Clinic,+44 131 667 1234,,"187 Dalkeith Road, Edinburgh",55.933604,-3.16626,UK
Edith Shaw Unit,Clinic,,,,53.102642,-2.027542,UK
Emergency Department,Clinic,,,,57.473638,-4.19421,UK
Este Medical Group,Clinic,+44 131 605 0323,,"37 York Place, Edinburgh",55.956109,-3.189757,UK
Estover Health Centre,Clinic,,,,50.41054,-4.095485,UK
Evolve Injury Clinic,Clinic,,,"61 Derby Road, Nottingham, NG10 1LU, GB",52.89999,-1.273446,UK
Family Health & Diagnostic Centre,Clinic,,,,52.582908,-1.99711,UK
Feltham Health Centre (NHS),Clinic,,,"High Street, Feltham",51.446384,-0.411171,UK
Fenwick2 Health & Wellbeing Centre,Clinic,,,,50.879406,-1.583483,UK
Ferry Road Foot Clinic,Clinic,+44 131 553 2370; +44 7841 459977,,"49 Ferry Road, Edinburgh",55.97498,-3.180734,UK
Finedon Health Centre,Clinic,+44 1536 723566,,"Regent Street, Finedon, NN9 5NB, GB",52.337917,-0.65703,UK
Firefly Foot & Ankle Clinic,Clinic,,,,54.573845,-5.915492,UK
Fitzwilliam Clinic,Clinic,+44 28 9032 3888,,"72 Lisburn Road, Belfast",54.585872,-5.939978,UK
Folkestone Health Centre,Clinic,,,,51.082539,1.181331,UK
Foot Health Practitioner,Clinic,,,18 Albert Road,50.787377,-1.081618,UK
Footsteps Treatment Clinic,Clinic,,,,52.636322,-1.693238,UK
Footworks Chiropody Clinic Ltd.,Clinic,,,,52.475918,-2.067731,UK
Gatley Physiotherapy Clinic,Clinic,+44 161 491 1999,,"98 Church Road, Cheadle, SK8 4NQ",53.391233,-2.238529,UK
Glasgow Spinal Care,Clinic,,,,55.893445,-4.321852,UK
Granby Clinic,Clinic,,,,51.438355,-2.602952,UK
Greasby Health Centre,Clinic,,,,53.377983,-3.120217,UK
Great James Medical Centre,Clinic,,,,54.999711,-7.326032,UK
Green Wyrthe Surgery,Clinic,,,"Green Wyrthe Lane, London, SM5 1JF, GB",51.384991,-0.174777,UK
Greenwood & Sneinton Family Medical Centre,Clinic,,,"249 Sneinton Dale, Nottingham, NG3 7DQ",52.955383,-1.120826,UK
Guildford Foot Clinic,Clinic,,,42 London Road,51.239349,-0.564257,UK
Hansford & Crocker,Clinic,,,,53.772346,-0.44878,UK
Hazel Grove Clinic,Clinic,,,"253 London Road, SK7 4PW",53.379374,-2.118627,UK
Health Centre,Clinic,,,,51.798548,-0.396522,UK
Health and Wellness Centre,Clinic,,,"31-43 Ashfield Street, London",51.51675,-0.060138,UK
Hebburn Health Centre,Clinic,+44 191 283 1610,,"Campbell Park Road, Hebburn, NE31 2SP",54.973369,-1.507635,UK
Hestia Medical Cosmetics,Clinic,+44 1284 488228,,"44 Abbeygate Street, Bury St Edmunds, IP33 1LW",52.244732,0.714239,UK
Himom Ultrasound,Clinic,,,"24 Church Street, Kidderminster",52.389573,-2.250215,UK
Holmedale Health,Clinic,+44 1392 454954,,"34 Denmark Road, Exeter, EX1 1SE",50.722006,-3.52234,UK
HomeMed Healthcare,Clinic,,,"Grosvenor Way, London",51.56599,-0.051532,UK
Homerton Sexual Health,Clinic,,,"80 Leadenhall Street, London, EC3A 3DH, GB",51.513401,-0.078508,UK
Honeypot Lane Centre NHS Clinic,Clinic,,,,51.605571,-0.300515,UK
Hope Specialist Falls & Respiratory Service,Clinic,+44 1472 313400,,"Hope Street, Grimsby, DN32 7QL",53.571455,-0.068728,UK
Hoylake Road Medical Centre,Clinic,,,,53.399172,-3.116976,UK
Ian R Mitchell Chiropodist,Clinic,,,"1a Belle Vue Street, Filey, YO14 9HU",54.208795,-0.288961,UK
Imaging A,Clinic,,,,52.582261,-1.99916,UK
InHealth Diagnostic Centre,Clinic,,,"236-252 High Street, London, E15 2JA",51.537265,-0.003284,UK
Inpatient Centre (West Wing),Clinic,,,,52.582649,-1.998646,UK
Institute of Sport Exercise and Health,Clinic,,,"170 Tottenham Court Road, London, W1T 7HA",51.522677,-0.136086,UK
Invicta Genomics,Clinic,,,,52.479007,-1.901253,UK
Isis Centre,Clinic,,,,51.758544,-1.261694,UK
Jamie Bell Physio,Clinic,+44 113 318 6313,,"2 Leeds Road, Leeds, LS19 6AX",53.852395,-1.684576,UK
Johnstone's Chiropodist,Clinic,,,"Upper George Street, Luton",51.879662,-0.419675,UK
Kensington International Clinic,Clinic,+44 20 7225 2228,,"2 North Terrace, London",51.495887,-0.16965,UK
Kentwood Clinic,Clinic,+44 1539 716706,,"Gillinggate, Kendal, LA9 4JE",54.323276,-2.74828,UK
Kings Medical Centre,Clinic,,,"3 Trinity Mews, Middlesbrough, TS3 6AL, GB",54.571349,-1.216582,UK
Kingsbridge Private Hospital,Clinic,,,,55.045459,-7.014003,UK
Lauren Barker Aesthetics Clinic,Clinic,,,"170 Chatsworth Road, Chesterfield, S40 2BA",53.234261,-1.445164,UK
Leamington Spa & Redditch Chiropractic Clinic,Clinic,+44 1926 427354,,,52.293103,-1.570039,UK
Leicester Sports Medicine Clinic,Clinic,,,"Victoria Park Road, Leicester",52.619642,-1.118246,UK
Ligoniel Health Centre,Clinic,,,,54.624636,-5.981714,UK
Lind Clinic,Clinic,,,,51.489378,-0.034231,UK
Liverpool Road Health Centre,Clinic,,,"9 Mersey Place, Luton, LU1 1HH",51.881628,-0.422889,UK
London Physiotherapy and Wellness,Clinic,,,,51.530326,-0.021279,UK
Luing Cowley Outpatients Centre,Clinic,,,,52.024826,-0.7371,UK
Luton NHS Walk-in Centre,Clinic,,,"Chapel Street, Luton",51.877949,-0.415781,UK
Lynne & Anthony Metcalff - Chiropodist,Clinic,+44 1670 53 1110,,"Front Street East, Bedlington",55.129493,-1.590449,UK
MRI Unit,Clinic,,,,52.363922,-1.259182,UK
Maida Vale Medical Centre,Clinic,,,"Elgin Avenue, London",51.52862,-0.188326,UK
Marchhall Centre,Clinic,,,"3 Marchhall Crescent, Edinburgh",55.937067,-3.168993,UK
Marie Stopes Clinic,Clinic,,,"1A Raleigh Gardens, London, SW2 1AB",51.453884,-0.11931,UK
Market Harborough Chiropractic Clinic,Clinic,,,19 Nelson Street,52.478094,-0.926137,UK
Mary Rankin Dialysis Unit,Clinic,,,,51.537166,-0.131184,UK
Maternity,Clinic,,,,52.583481,-1.997856,UK
Meadowside Health Clinic,Clinic,+44 131 563 3165,,"132 Marchmont Road, Edinburgh, EH9 1AQ",55.935214,-3.194426,UK
Medical Centre,Clinic,+44 1707 284444,,,51.751279,-0.242022,UK
Medical Imaging,Clinic,,,,54.985193,-7.293844,UK
Medipark Clinic,Clinic,+44 20 8341 3185,info@mediparkclinic.uk,"573 Green Lanes, London, N8 0RL",51.583275,-0.10004,UK
Memorial Centre,Clinic,,,,51.715026,-1.971529,UK
Midwifery Led Unit,Clinic,,,,52.584893,-1.988607,UK
Molehill Copse Clinic,Clinic,,,,51.250278,0.5438,UK
Monkton Hall,Clinic,+44 191 213 0151,,"Monkton Lane, Jarrow, NE32 5NN",54.966454,-1.502886,UK
Moorfields Eye Unit,Clinic,+44 20 7566 2841,,"St Ann's Road, London, N15 3TH",51.580062,-0.08785,UK
Moorlands House,Clinic,,,,53.107281,-2.024164,UK
Morningside Chiropractic,Clinic,+44 131 447 3794,,"74 Comiston Road, Edinburgh",55.922979,-3.211049,UK
My Sight,Clinic,,,"26-28 Heathcoat Street, Nottingham, NG1 3AA",52.954674,-1.14302,UK
My Vital Metrics,Clinic,,,"London Wall, London, EC2M 5QQ",51.517381,-0.08749,UK
NHS Ordsall Health Surgery,Clinic,+44 161 983 0080,salccg.ordsallhealthsurgery@nhs.net,"118 Phoebe Street, Salford, M5 3PH",53.474212,-2.282022,UK
NHS Soho Walk-In Centre (Minor Injuries unit),Clinic,,,,51.514596,-0.132073,UK
NHS Walk in Centre,Clinic,,,"Sidwell Street, Exeter",50.726569,-3.525195,UK
New Cross Gate Dialysis Unit,Clinic,+44 20 7188 7091,,40 Goodwood Road,51.477085,-0.039888,UK
Nigel Kavanagh Chiropracter,Clinic,,,"22 Church Street, Kidderminster",52.389688,-2.250369,UK
North Cardiff Medical Centre,Clinic,,,,51.53774,-3.19455,UK
North Ormesby Dialysis Centre,Clinic,,,,54.571873,-1.215555,UK
North Wales Breast Screening Centre,Clinic,+44 1492 860888,,"Maesdu Road, LL30 1QY",53.313121,-3.83096,UK
Notvello,Clinic,,,,51.549238,-0.108187,UK
Nuffield Health,Clinic,,,,51.449971,-2.587728,UK
Numi Scan East London,Clinic,,,"28 High Road, London, E18 2QL",51.593437,0.022649,UK
Oak Farm Clinic,Clinic,,,,51.544067,-0.449444,UK
Oakfield Medical Centre,Clinic,,,"1 Trinity Mews, Middlesbrough, TS3 6AL, GB",54.571658,-1.21562,UK
Ocean Terminal Vaccination Clinic,Clinic,,,"Ocean Drive, Leith, EH6 6JJ",55.980408,-3.179314,UK
One Heart Clinic City,Clinic,,,"80 Cheapside, London, EC2V 6EE",51.513527,-0.091461,UK
Optical Express,Clinic,,,"39-41 Petty Cury, Cambridge, CB2 3NB, GB",52.205143,0.119581,UK
Ordnance Unity Centre for Health,Clinic,,,,51.672109,-0.039334,UK
Orthodontics,Clinic,,,,52.567293,-1.813074,UK
Outpatient & Day Case Centre,Clinic,,,,52.582112,-1.997321,UK
Outpatient Department,Clinic,,,,57.473282,-4.194009,UK
Outpatients,Clinic,,,,54.985992,-7.293507,UK
Outpatients,Clinic,,,,52.364335,-1.256188,UK
PET Centre,Clinic,,,,52.453247,-1.940836,UK
Park Medical Centre,Clinic,+44 20 8741 7471,,Invermead Close,51.496999,-0.243217,UK
Parkway Health Centre,Clinic,+44 1689 808300,,"Parkway, Croydon, CR0 0JA",51.343447,-0.018289,UK
Parkwood Health Centre,Clinic,,,,51.348278,0.595499,UK
Peak Health Therapies,Clinic,,,"Front Street, Winlaton",54.954909,-1.72469,UK
Physiotherapy,Clinic,,,,52.364118,-1.256526,UK
Plains Physiotherapy Clinic,Clinic,+44 115 960 6408,info@plainsphysiotherapy.co.uk,"856a Woodborough Road, Nottingham, NG3 5QQ",52.982343,-1.124144,UK
Portbury Medical Centre,Clinic,,,,51.49022,-2.722676,UK
Portobello Foot Care,Clinic,,,"34 Portobello High Street, Edinburgh",55.95528,-3.118125,UK
Pro Active - Sports Injury,Clinic,+44 1900 268184,,"53 Oxford Street, Workington",54.643915,-3.552901,UK
Queen Elizabeth Neuroscience Centre,Clinic,,,,52.453073,-1.937431,UK
Queenstown Medical Centre,Clinic,,,,51.466906,-0.150389,UK
Randox Health,Clinic,,,"39-40 High Street, Birmingham, B4 7SL",52.479224,-1.894592,UK
Randox Health,Clinic,,,"143-149 Great Portland Street, London",51.520763,-0.143185,UK
Rectory Road Health Clinic,Clinic,,,"Rectory Road, Rushden, NN10 0AE, GB",52.292171,-0.597161,UK
Reeth Medical Centre,Clinic,+44 1748 884396,,"Back Lane, Reeth, DL11 6SU",54.387987,-1.946044,UK
Rejuvenate,Clinic,,,,51.901992,-2.117041,UK
Resolution Medical Centre,Clinic,,,"11 Trinity Mews, Middlesbrough, TS3 6AL, GB",54.572132,-1.216319,UK
Reviv,Clinic,,,"45 Great Portland Street, London",51.517328,-0.141648,UK
Riverside Clinic,Clinic,,,,51.528399,0.108687,UK
Rochdale Road Surgery,Clinic,,,"58 Rochdale Road, Manchester, M40 7GT",53.492625,-2.225236,UK
Rose Lodge,Clinic,+44 191 496 3800,,"Hospital Drive, Hebburn, NE31 2TH",54.966578,-1.521519,UK
Rosedale Community Unit,Clinic,,,,53.747216,-0.197397,UK
Rowley Regis Disability Centre,Clinic,,,,52.481554,-2.042887,UK
Royal Centre for Defence Medicine,Clinic,,,"Mindelsohn Way, Birmingham, B15 2WB",52.451136,-1.94194,UK
Sedgley Physiotherapy and Acupuncture Clinic,Clinic,,,,52.540633,-2.121297,UK
Sk:n,Clinic,,,"Jubilee Street, Brighton, BN1 1GE",50.825294,-0.138649,UK
Smokers Clinic,Clinic,,,,51.516444,-0.059389,UK
Solihull CAMHS,Clinic,,,"93 Northbrook Road, Solihull, B90 3LX",52.419585,-1.821537,UK
South Camden Centre for Health,Clinic,,,"146-162 Drummond Street, London, NW1 3HP, GB",51.526421,-0.139313,UK
South Cliff Chiropody,Clinic,,,"30 Ramshill Road, Scarborough, YO11 2QG",54.27406,-0.402576,UK
South West London Elective Orthopaedic Centre (SWLEOC),Clinic,,,,51.324657,-0.272451,UK
South Wing,Clinic,,,,54.985652,-7.291012,UK
Speke Neighbourhood Health Centre,Clinic,,,,53.341036,-2.839655,UK
Spire (Hale),Clinic,+44 161 927 3878,,"159 Ashley Road, Altrincham, WA15 9SF",53.377845,-2.346808,UK
Spittal Street Clinic,Clinic,,,"22-24 Spittal Street, Edinburgh",55.946599,-3.202359,UK
Springbank Clinic,Clinic,,,13 Pembroke Rd,51.272926,0.191134,UK
St Andrews Place,Clinic,,,,53.73558,-0.37182,UK
St Barts Sexual Health Clinic,Clinic,,,,51.517984,-0.100044,UK
St George's Medical Centre,Clinic,,,,53.747752,-1.532224,UK
St Helens Urgent Treatment Centre,Clinic,+44 1744 627400,,"Corporation Street, St Helens, WA10 1HJ",53.453286,-2.731663,UK
St. John Clinic,Clinic,,,,51.461555,-0.303383,UK
St. Johns Ambulance,Clinic,,,,50.953207,-1.210436,UK
Steven K Epworth Chiropodist,Clinic,+44 115 985 6560,,"910 Woodborough Road, Nottingham, NG3 5QR",52.983938,-1.121564,UK
Stockton Heath Medical Centre,Clinic,+44 1925 604427,,"London Road, Warrington, WA4 6HJ",53.372031,-2.582191,UK
Taunton Dialysis Centre,Clinic,,,,51.02492,-3.072145,UK
Taylors Avenue Medical Centre,Clinic,+44 1472 572 400,nel.b81642@nhs.net,"146 Taylor's Avenue, Cleethorpes, DN35 0LN, GB",53.548043,-0.036329,UK
The Bournville Health Hub,Clinic,,,"81 Mary Vale Road, Birmingham",52.425927,-1.928236,UK
The Cancer Centre,Clinic,,,,52.45331,-1.940004,UK
The Cardiff Clinic,Clinic,+44 2920 256498,info@thecardiffclinic.co.uk,"116 Cathedral Road, Cardiff, CF11 9LP",51.486893,-3.196309,UK
The Carnaby Laser Clinic,Clinic,,,"Glaisher Street, London",51.482487,-0.018863,UK
The Centre for Reproductive and Genetic Health,Clinic,,,"230-232 Great Portland Street, London",51.522962,-0.143815,UK
The Clinic MK,Clinic,,,,52.034288,-0.773473,UK
The Drake Unit Sexual Health Services,Clinic,,,,52.481583,-1.905008,UK
The Foot Clinic,Clinic,,,,52.585807,-2.124126,UK
The Foscote Private Hospital,Clinic,,,,52.053497,-1.331074,UK
The Glass House,Clinic,+44 20 7223 7372,,"16 Abyssinia Close, London, SW11 1ER",51.460384,-0.167291,UK
The Goddess Clinic,Clinic,,sales@thegoddessclinic.co.uk,"36 West Preston Street, Edinburgh, EH8 9PY",55.938904,-3.181114,UK
The Lace Market Clinic,Clinic,,,"32a Stoney Street, Nottingham, NG1 1LL",52.951724,-1.142748,UK
The Laser Clinic,Clinic,,,"Market Place, Reading",51.455609,-0.9698,UK
The Library Therapy Centre,Clinic,,,,52.472591,-2.105108,UK
The Little Green Clinc,Clinic,+44 1229 353580,,"19 Market Street, Ulverston, LA12 7LR",54.196039,-3.095153,UK
The London Skin and Hair Clinic Holborn,Clinic,,,"233 High Holborn, London, WC1V 7DN",51.517551,-0.11939,UK
The Monteiro Clinic,Clinic,,,2 Clapham Road,51.481085,-0.113478,UK
The Nottingham Centre For Transgender Health,Clinic,+44 1158 760160,not-tr.gender-services@nhs.net,"12 Broad Street, Nottingham, NG1 3AL",52.954059,-1.143855,UK
The Ramshill Clinic,Clinic,,,"46 Ramshill Road, Scarborough, YO11 2QG",54.273685,-0.402657,UK
The Scan Clinic,Clinic,,,"635a Cranbrook Road, Ilford",51.578063,0.070247,UK
The Vanity Clinic,Clinic,+44 1784 665 031,,"70 Church Road, Ashford, TW15 2TW",51.432751,-0.461278,UK
The Village Practice,Clinic,+44 20 7700 6464,,"115 Isledon Road, London, N7 7JJ",51.559677,-0.110073,UK
The Whitewater Clinic,Clinic,,,,50.990605,-3.486019,UK
Therapie,Clinic,,,,54.599174,-5.926185,UK
Thornton Heath Health Centre,Clinic,,,,51.39741,-0.095559,UK
Thorpdene clinic,Clinic,,,,51.536018,0.769386,UK
Tieve Tara Medical Centre,Clinic,,,,53.733001,-1.314461,UK
Tobacco Dependence Research Unit,Clinic,,,,51.516627,-0.059529,UK
Tottenham Hale Kidney & Diabetes Centre,Clinic,,,,51.58861,-0.058293,UK
Ultralase,Clinic,,,Station Street,52.948304,-1.141172,UK
Urgent Care Centre,Clinic,,,,52.364076,-1.258082,UK
Victoria Central Health Centre,Clinic,+44 151 678 7272,,"Mill Lane, CH44 5UF",53.415702,-3.045857,UK
Victoria Medical Centre,Clinic,,,,51.492704,-0.138808,UK
View to the Womb,Clinic,,,,52.55349,-1.883635,UK
Vivienne Cohen House,Clinic,,,"Crozier Terrace, London, E9 6AT",51.548591,-0.040242,UK
Wallasey Village Medical Centre,Clinic,,,,53.422462,-3.063568,UK
Walm Lane Clinic,Clinic,,,"114 Walm Lane, London, NW2 4RT",51.550045,-0.219684,UK
Walmer Road Clinic,Clinic,,,226 Walmer Road,51.512308,-0.212474,UK
Walsall Child Development Centre,Clinic,,,"Coalheath Lane, Walsall, WS4 1PL",52.614528,-1.955502,UK
Ware Health Centre,Clinic,,,,51.81107,-0.027178,UK
WeCare Physiotherapy,Clinic,,,"62 Bell Road, Sittingbourne, ME10 4HE, GB",51.331881,0.733256,UK
Weight Medics,Clinic,+44 20 7760 7870,,"Kew Road, Richmond, TW9 2NQ",51.464117,-0.301646,UK
Westbourne Medical Centre,Clinic,,,"7 Trinity Mews, Middlesbrough, TS3 6AL, GB",54.571804,-1.217092,UK
Whickham Chiropody & Podiatry,Clinic,+44 191 488 3444,,"Front Street, Whickham",54.945527,-1.682552,UK
Whickham Chiropractic clinic,Clinic,+44 191 488 9300,,"Swalwell Bank, Whickham",54.945598,-1.683328,UK
Whitegate Drive Health Centre,Clinic,,,"150 Whitegate Drive, Blackpool, FY3 9ES",53.81208,-3.033285,UK
Whitley Road Medical Centre,Clinic,,,"1 Whitley Road, Manchester, M40 7QH",53.494926,-2.222729,UK
Widnes NHS Walk-In Centre,Clinic,,,,53.362206,-2.735913,UK
Wight Chiropractic Clinic,Clinic,,,"30 Roseburn Place, Edinburgh",55.945405,-3.236966,UK
Wigmore Medical Centre,Clinic,,,,51.35183,0.589348,UK
Winlaton Clinic,Clinic,,,,54.953325,-1.728387,UK
Woodsley Road Health Centre,Clinic,,,,53.806916,-1.567982,UK
Wordsley Green Health Centre,Clinic,,,,52.480086,-2.164014,UK
Wormley Health Centre,Clinic,,,,51.730235,-0.022964,UK
Wychbury Medical Centre,Clinic,+441562547300,,"121 Oakfield Road, Stourbridge, DY9 9DS",52.441097,-2.111244,UK
Yew Tree Healthy Living Centre,Clinic,,,,52.559341,-1.960039,UK
Your Spinal Health,Clinic,+44 1768 259 012,,"16 King Street, Penrith, CA11 7AJ, GB",54.663131,-2.750733,UK
iCaSH,Clinic,+44 300 300 3030,,"1a Oak Street, Norwich, NR3 3AE",52.632787,1.290704,UK
iSIGHT,Clinic,+44 1704 563279,,"2 Lulworth Road, Southport, PR8 2AT",53.641931,-3.016477,UK
A&E Department,Hospital,,,,51.52298,0.03436,UK
Abingdon Community Hospital,Hospital,,,,51.669902,-1.30202,UK
Addington Clinic,Hospital,,,,50.766217,-1.906153,UK
Aintree University Hospital,Hospital,+44 151 525 5980,,"Lower Lane, Liverpool, L9 7AL",53.465693,-2.933351,UK
Airey Close,Hospital,+44 1502 560111,,"1 Airey Close, Lowestoft, NR32 3JQ",52.497436,1.718848,UK
Aldeburgh Community Hospital,Hospital,,,"Park Road, Aldeburgh, IP15 5ES",52.152102,1.595322,UK
Alderney Hospital,Hospital,,,,50.749939,-1.941343,UK
Aldershot Centre for Health,Hospital,,,GU11 1AY,51.254356,-0.765629,UK
Aldrington House,Hospital,,,,50.830188,-0.18423,UK
Alfred Bean Community Hospital,Hospital,+44 1377 208700,,"Bridlington Road, Driffield, YO25 5JR",54.01217,-0.423233,UK
Alnwick Infirmary,Hospital,+44 344 811 8111,,"Infirmary Drive, Alnwick, NE66 2NS",55.410908,-1.69718,UK
Altnagelvin Hospital,Hospital,+44 28 7134 5171,,"Glenshane Road, Derry, BT47 6SB",54.986439,-7.291585,UK
Altrincham Health and Wellbeing Centre,Hospital,,,,53.38679,-2.352868,UK
Altrincham Hospital,Hospital,+44 161 413 7700,,"Railway Street, Altrincham, WA14 2RQ",53.38496,-2.351494,UK
Andover War Memorial Hospital,Hospital,+44 1264 358 811,,"Charlton Road, Andover, SP10 3LB",51.215563,-1.494556,UK
Ards Hospital,Hospital,,,,54.59383,-5.705597,UK
Argyll House,Hospital,,,"9 Williamson Road, Sheffield, S11 9AR",53.364003,-1.495573,UK
Ashford Hospital,Hospital,,,"London Road, Ashford, TW15 3AA",51.444385,-0.473373,UK
Ashtead Clinic,Hospital,,,,51.31409,-0.303646,UK
Ashton Community Care Centre,Hospital,,,"Lancaster, LA1 4JT",54.039699,-2.798745,UK
Ashworth Hospital,Hospital,,,,53.521316,-2.91322,UK
Astley Ainslie Hospital,Hospital,+44 131 537 9000,,"133 Grange Loan, Edinburgh, EH9 2HL",55.928757,-3.197837,UK
Atrium Health,Hospital,+44 2476 234570,,,52.408831,-1.518724,UK
Ayr & Ailsa Hospitals,Hospital,,,,55.432439,-4.597245,UK
BMI Bath Clinic,Hospital,,,BA2 7BR,51.364163,-2.332463,UK
Babington Hospital,Hospital,,,"Derby Road, Belper, DE56 1WH",53.018341,-1.485968,UK
Badsley Moor Lane NHS,Hospital,,,,53.430515,-1.332989,UK
Barnes Hospital,Hospital,,,"South Worple Way, London, SW14 8SU",51.467206,-0.255859,UK
Barnet Hospital,Hospital,,,"Wellhouse Lane, Barnet, EN5 3DJ",51.650912,-0.21456,UK
Barnsley Hospital,Hospital,,,,53.558441,-1.49983,UK
Barry Hospital,Hospital,,,,51.413949,-3.284896,UK
Bedford Health Village,Hospital,,,"3 Kimbolton Road, Bedford, MK40 2NT, GB",52.141316,-0.459015,UK
Bedford Hospital SDEC - Same Day Emergency Care,Hospital,,,Ampthill Road,52.127609,-0.470803,UK
Belhaven Hospital,Hospital,,,EH42 1TR,55.99585,-2.537359,UK
Bellsdyke Hospital,Hospital,,,"Bellsdyke Road, Larbert, FK5 4WS",56.03546,-3.817311,UK
Berkshire Independent Hospital,Hospital,,,,51.444328,-0.988661,UK
Berwick Infirmary,Hospital,,,,55.773505,-2.004501,UK
Bethlem Royal Hospital,Hospital,,,"Beckenham, BR3 3BX",51.382628,-0.031683,UK
Bickerstaff Endoscopy Unit,Hospital,,,,52.712049,-2.509844,UK
Biggin Hill Clinic,Hospital,,,,51.313071,0.034439,UK
Biggleswade Hospital,Hospital,,,"Potton Road, Biggleswade, SG18 0EL",52.09898,-0.24705,UK
Bilston Street Surgery,Hospital,,,,52.542511,-2.120624,UK
Birch Hill Hospital,Hospital,,,,53.642757,-2.123599,UK
Birch Ward,Hospital,,,"Thomas Drive, Liverpool, L14 3PE",53.410348,-2.899799,UK
Birmingham Chest Clinic,Hospital,,,"151 Great Charles Street Queensway, Birmingham, B3 3HX",52.48161,-1.905064,UK
Birmingham Children's Hospital,Hospital,+44 121 333 9999,,"Steelhouse Lane, Birmingham, B4 6NH, GB",52.484859,-1.894686,UK
Birmingham Children's Hospital A&E,Hospital,,,,52.485261,-1.893123,UK
Birmingham Heartlands Hospital,Hospital,,,"Bordesley Green East, Birmingham, B9 5ST",52.478081,-1.828654,UK
Birmingham Women's Hospital,Hospital,,,"Birmingham, B15 2TG",52.453207,-1.943178,UK
Bloxwich Hospital,Hospital,,,WS3 2JJ,52.613662,-2.004787,UK
Bluebird Lodge,Hospital,,,"100 Mansbrook Boulevard, Ipswich, IP3 9GJ",52.025877,1.199415,UK
Bolton Hospice,Hospital,,,"Queens Park Street, Bolton, BL1 4QT",53.581114,-2.442326,UK
Borders General Hospital,Hospital,,,TD6 9BS,55.595357,-2.743882,UK
Bourne Hall Health Centre,Hospital,,,,51.351272,-0.25253,UK
Bracton Centre,Hospital,,,,51.433255,0.179635,UK
Bradbury House Day Hospice,Hospital,,,"494 Wolverhampton Road, B68 8DG",52.477712,-2.008588,UK
Bradford Royal Infirmary,Hospital,,,"Duckworth Lane, Bradford, BD9 6RJ",53.806697,-1.797449,UK
Breckfield and North Everton,Hospital,,,,53.425753,-2.966136,UK
Brentwood Community Hospital,Hospital,+44 1277 695000,,"Crescent Drive, Brentwood, CM15 8DR",51.623341,0.316027,UK
Brian Oliver Centre,Hospital,,,,52.471663,-1.744634,UK
Bridge Lane Health Centre,Hospital,+44 20 3538 0882,,,51.473268,-0.166317,UK
Brighton General Hospital,Hospital,,,,50.830639,-0.11452,UK
British Home & Hospital for Incurables,Hospital,,,"Crown Lane, London, SW16 3JB, GB",51.423089,-0.107068,UK
Brixham Hospital,Hospital,,,,50.389332,-3.514009,UK
Broadmoor Hospital,Hospital,,,"Joshua Jebb Way, Crowthorne",51.368761,-0.777465,UK
Brookfields Hospital,Hospital,,,"351 Mill Road, Cambridge, CB1 3DF",52.197494,0.153436,UK
Broomhill,Hospital,,,"Holdenby Road, Spratton, NN6 8LD, GB",52.32094,-0.961068,UK
Buckingham Community Hospital,Hospital,,,,52.0024,-0.985671,UK
Bushey Fields Hospital,Hospital,,,"Bushey Fields Road, DY1 2LZ",52.503117,-2.116075,UK
Butterwick Hospice,Hospital,,,"Middlefield Road, Stockton-on-Tees, TS19 8XN, GB",54.580466,-1.347952,UK
Buxton Health Centre,Hospital,,,"Bath Road, Buxton, SK17 6HH",53.254148,-1.917462,UK
Buxton Hospital & Corbar Birth Centre,Hospital,+44 1298 214 000,,"London Road, Buxton, SK17 9NJ",53.248208,-1.908264,UK
CRGH,Hospital,,,"16 St. John Street, London",51.520201,-0.101541,UK
Calderdale Royal Hospital,Hospital,,,,53.704966,-1.85723,UK
Callington Road Hospital,Hospital,,,"Marmalade Lane, Bristol, BS4 5BJ",51.430951,-2.558287,UK
Cambian Churchill,Hospital,,,"22 Barkham Terrace, London, SE1 7PW",51.497186,-0.109639,UK
Cambridge Biomedical Campus,Hospital,,,,52.173692,0.138477,UK
Cambridge Lea Hospital (Spire),Hospital,,,,52.244732,0.113464,UK
Cambridge Private Hospital (Orwell Grange),Hospital,,,,52.1307,-0.03116,UK
Campus for Ageing and Vitality,Hospital,+44 191 233 6161,,"Westgate Road, Newcastle upon Tyne, NE4 9AQ",54.977098,-1.64453,UK
Cancer Genetics Building,Hospital,,,,53.808435,-1.518805,UK
Cardiff North Dialysis Unit,Hospital,,,,51.531108,-3.137302,UK
Cardiff Royal Infirmary,Hospital,,,,51.485118,-3.162503,UK
Cardio / Respiratory,Hospital,,,,52.712059,-2.512123,UK
Carnegie Centre,Hospital,,,"Hunters Road, Birmingham, B19 1DU",52.497152,-1.915495,UK
Castle Douglas Hospital,Hospital,,,Castle Douglas,54.939181,-3.924952,UK
Castle Hill Hospital,Hospital,,,,53.778569,-0.443275,UK
Castleberg Hospital,Hospital,,,,54.069344,-2.292206,UK
Caterham Dene - Physiotherapy,Hospital,,,"Church Street, Caterham",51.283562,-0.085468,UK
Caterham Dene Hospital & Minor Injuries Unit,Hospital,,,"Church Street, Caterham",51.283807,-0.085536,UK
Cefn Coed Hospital,Hospital,,,"Waunarlwydd Road, SA2 0GH",51.627929,-3.988667,UK
Central Middlesex Hospital,Hospital,+44 20 8965 5733,,"Acton Lane, London, NW10 7NS",51.531484,-0.267615,UK
Chapel Allerton Hospital,Hospital,,,"Chapeltown Road, Leeds, LS7 4SA",53.822421,-1.530296,UK
Chapel Orchard Day Surgery,Hospital,,,,51.402049,-0.171537,UK
Chase Farm Hospital,Hospital,,,,51.667077,-0.10256,UK
Chelmsford and Essex (C&E) Centre,Hospital,+44 1245 315200,,"New London Road, Chelmsford, CM2 0QH",51.731008,0.4709,UK
Chelmsley Wood NHS Primary Care Centre,Hospital,,,,52.480418,-1.752484,UK
Chelsfield Park Hospital,Hospital,+44 1689 877855,,"Bucks Cross Road, Orpington, BR6 7RG, GB",51.358257,0.131675,UK
Cheltenham General Hospital,Hospital,,,,51.893023,-2.071794,UK
Cheshunt Community Hospital,Hospital,,,EN8 8XN,51.69925,-0.033211,UK
Children's A&E,Hospital,,,"Wigan Road, Ormskirk, L39 2AZ",53.565013,-2.871262,UK
Children's Outpatients Department,Hospital,,,"Wigan Road, Ormskirk, L39 2AZ",53.564977,-2.871152,UK
Childrens Resource Centre,Hospital,,,,51.435522,0.255846,UK
Chorley & South Ribble District General Hospital,Hospital,,,"Preston Road, Chorley, PR7 1PP",53.665762,-2.635891,UK
Christchurch Hospital,Hospital,,,,50.745162,-1.790275,UK
Churchill Hospital,Hospital,+44 300 304 7777,,,51.749186,-1.212979,UK
Cirencester Hospital,Hospital,,,"Tetbury Road, Cirencester, GL7 1UY",51.712346,-1.975985,UK
Clackmannanshire Community Healthcare Centre,Hospital,+44 1259 215333,,"Hallpark Road, Sauchie, FK10 3JQ",56.124711,-3.784398,UK
Clacton Hospital,Hospital,,,"Clacton-on-Sea, CO15 1LH",51.7855,1.148065,UK
Clatterbridge Cancer Centre - Wirral,Hospital,,,,53.331382,-3.028597,UK
Cleveland Clinic London,Hospital,+44 20 3423 7500,,"33 Grosvenor Place, London, SW1X 7HY",51.499394,-0.148755,UK
Clinical Research Facility,Hospital,,,"170 Tottenham Court Road, London, W1T 7HA",51.522714,-0.136017,UK
Cobalt Treatment Centre,Hospital,+44 191 283 5856,,"The Silverlink North, Newcastle upon Tyne, NE27 0BY, GB",55.028022,-1.510858,UK
Cobham Day Surgery,Hospital,+44 1932 588400,,"168 Portsmouth Road, Cobham, KT11 1HS",51.334761,-0.407903,UK
Community Hospital,Hospital,,,,53.832104,-2.609007,UK
Conference Room (LHCH),Hospital,,,,53.411137,-2.898677,UK
Connolly House,Hospital,,,"College Lane, Chichester, PO19 6PG",50.847803,-0.775834,UK
Coronary Care Unit (CCU) and Cardiology Ward,Hospital,+44 1256 852 648,,,51.281629,-1.111425,UK
County Hospital,Hospital,+44 1633 234 234,abhb.enquiries@wales.nhs.uk,"Coed-y-Gric Road, Griffithstown, NP4 5YA",51.690895,-3.026371,UK
County Hospital,Hospital,,,,52.810839,-2.09649,UK
County Hospital Louth,Hospital,,,"High Holme Road, Louth, LN11 0EU, GB",53.371367,-0.009115,UK
Countywide IT Services,Hospital,,,,51.89184,-2.067144,UK
Cowal Community Hospital,Hospital,+44 1369704341,,"360 Argyll Street, PA23 7RL",55.958943,-4.927769,UK
Crawley Hospital,Hospital,,,Crawley,51.116638,-0.197356,UK
Crieff Community Hospital,Hospital,,,"King Street, Crieff, PH7 3HR",56.370267,-3.842572,UK
"Critical Care Unit, POCCU, and Coronary Care Unit",Hospital,,,,53.411428,-2.900566,UK
Croydon Heart Centre,Hospital,,,,51.3887,-0.11113,UK
Croydon University Hospital,Hospital,,,"530 London Road, Thornton Heath, CR7 7YE",51.390124,-0.110056,UK
Culm Valley Integrated Centre for Health,Hospital,,,,50.864374,-3.392665,UK
Cumbernauld Chiropractor,Hospital,,,"44 44 Main Street, Cumbernauld, G67 2RX",55.962286,-3.975593,UK
"Cygen Hospital, Bierley",Hospital,,,,53.768087,-1.73188,UK
Cygnet,Hospital,,,"83 East Bank Road, Sheffield, S2 3PX",53.368066,-1.45873,UK
Cygnet Hospital,Hospital,,,"Woking, GU21 2QS",51.314799,-0.615291,UK
Cygnet Hospital Derby,Hospital,,,"100 City Gate, Derby, DE24 8WZ",52.907411,-1.455089,UK
Cygnet Hospital Harrogate,Hospital,,,,53.998992,-1.54772,UK
DRIVE THROUGH PHLEBOTOMY,Hospital,,,,53.467844,-2.935393,UK
Daisy Hill Hospital,Hospital,+44 28 3083 5000 x2347,,"5 Hospital Road, Newry, BT35 8DR",54.17978,-6.350863,UK
Dartmouth and Kingswear Hospital,Hospital,,,,50.350226,-3.577679,UK
Dawlish Community Hospital,Hospital,,,"Barton Terrace, Dawlish, EX7 9QH",50.580402,-3.474458,UK
Day Surgery Unit (DSU),Hospital,,,,51.389866,-0.110707,UK
Denbigh Infirmary,Hospital,,,"Ruthin Road, Denbigh, LL16 3ES, GB",53.185951,-3.40986,UK
Dental Department,Hospital,,,,51.39027,-0.109744,UK
Dental Hospital,Hospital,,,,51.469123,-0.092711,UK
Dermatology,Hospital,,,,50.418547,-4.11842,UK
Dermatology Department,Hospital,,,,51.390485,-0.109961,UK
Derriford Hospital,Hospital,+44 1752 202082,,"Derriford Road, Plymouth, PL6 8DH",50.417163,-4.116278,UK
Dewsbury & District Hospital,Hospital,,,"Dewsbury, WF13 4HS",53.702294,-1.650413,UK
Diabetic Department,Hospital,,,,51.388698,-0.108209,UK
Diana Princess of Wales Hospital,Hospital,+44 3033 306 999,,"Scartho Road, Grimsby, DN33 2BA, GB",53.545524,-0.095282,UK
Discharge Lounge,Hospital,,,,52.711621,-2.511008,UK
Doncaster Royal Infirmary,Hospital,,,,53.530845,-1.110271,UK
Dorothy House Hospice Care,Hospital,+44 1225 722988,info@dorothyhouse-hospice.org.uk,"Bradford on Avon, BA15 2LE, GB",51.345406,-2.291282,UK
Dundee Dental Hospital,Hospital,,,DD1 4HR,56.458415,-2.979274,UK
Dykebar Hospital,Hospital,,,,55.823,-4.400078,UK
Ealing Hospital,Hospital,+44 20 8967 5000,,"Uxbridge Road, Southall, UB1 3HW",51.507531,-0.345319,UK
East Cleveland Hospital,Hospital,,,,54.564919,-0.936514,UK
East Lothian Community Hospital,Hospital,,,,55.957413,-2.797273,UK
Eastbourne District General Hospital,Hospital,,,"King's Drive, Eastbourne, BN21 2UD",50.786219,0.27006,UK
Eccleshill NHS Treatment Centre,Hospital,,,,53.823815,-1.712072,UK
Edward Street Hospital,Hospital,,,"Edward Street, West Bromwich, B70 8NL",52.519041,-1.998803,UK
Ellen Badger Hospital,Hospital,,,"Stratford Road, Shipston-on-Stour, CV36 4AX",52.066856,-1.622486,UK
Elm Ward,Hospital,,,"Thomas Drive, Liverpool, L14 3PE",53.410371,-2.899714,UK
Elmleigh Hospital,Hospital,,,,50.858272,-0.974887,UK
Emergency Department,Hospital,,,,50.416739,-4.113336,UK
Emergency Department,Hospital,,,,51.388702,-0.109257,UK
Estates Workshop,Hospital,,,,51.892073,-2.06736,UK
Evelina London Children's Hospital,Hospital,,,"Westminster Bridge Road, London, SE1 7EH",51.498323,-0.118394,UK
Evesham Community Hospital,Hospital,,,"Waterside, Evesham, WR11 1JT",52.085482,-1.94729,UK
Executive Offices (LHCH),Hospital,,,,53.411085,-2.899001,UK
Eye Hospital,Hospital,,,,50.818763,-0.117635,UK
Fairfield Hospital,Hospital,,,"Crank Road, St Helens, WA11 7RS",53.484647,-2.749642,UK
Falkirk Community Hospital,Hospital,,,"Westburn Avenue, Falkirk, FK1 5QE",55.99735,-3.795536,UK
Falmouth Hospital,Hospital,,,,50.155613,-5.086069,UK
Farnham Road Hospital,Hospital,,,"Farnham Road, Guildford, GU2 7LX, GB",51.235621,-0.585038,UK
Fertility Treatment,Hospital,,,,51.391148,-0.110279,UK
Financial Management,Hospital,,,,51.891853,-2.066981,UK
Finchley Memorial Hospital,Hospital,,,,51.60561,-0.177012,UK
First Aid Hut,Hospital,,,,52.377687,-2.291632,UK
First Trust Hospital,Hospital,+44 1772 860884,reception@firsttrusthospital.org,PR3 5LD,53.804091,-2.711285,UK
Fleet Community Hospital,Hospital,,,,51.287443,-0.848572,UK
Fleetwood Hospital,Hospital,,,"Pharos Street, Fleetwood, FY7 6BE",53.926797,-3.00901,UK
Fleming Hospital,Hospital,,,,57.468734,-3.223406,UK
Foss Park Hospital,Hospital,+441904461100,,"Haxby Road, York, YO31 8TA",53.981458,-1.072305,UK
Fraserburgh Hospital,Hospital,,,,57.687631,-2.019466,UK
Freeman Hospital,Hospital,+44 191 233 6161,,"Freeman Road, Newcastle upon Tyne, NE7 7DN, GB",55.002569,-1.59318,UK
Friary Community Hospital,Hospital,+44 1748 822109,,"Queens Road, Richmond, DL10 4AJ",54.405113,-1.738412,UK
Frome Community Hospital,Hospital,,,,51.238099,-2.311467,UK
Fryatt Hospital,Hospital,,,"419 Main Road, Harwich, CO12 4EX",51.933769,1.260817,UK
Gartnavel General Hospital,Hospital,,,,55.882038,-4.313326,UK
Gartnavel Royal Hospital,Hospital,,,,55.882858,-4.319098,UK
George Elliot Medical Centre,Hospital,,,"178 Foleshill Road, Coventry, CV1 4JH, GB",52.419168,-1.506957,UK
Glan Clwyd Hospital,Hospital,+44 3000 843843,,"Rhuddlan Road, Rhyl, LL18 5UJ, GB",53.271403,-3.49691,UK
Glanrhyd Hospital,Hospital,,,,51.526551,-3.586028,UK
Glasgow Dental Hospital,Hospital,+44 141 211 9600,,"378 Sauchiehall Street, Glasgow, G2 3JZ",55.866062,-4.265579,UK
Glasgow Royal Infirmary,Hospital,,,,55.864569,-4.232978,UK
Glendon Wood Hospital,Hospital,+44 1536 212141,,NN14 1QF,52.424341,-0.732029,UK
Gloucestershire Managed Services Headquarters,Hospital,,,,51.891793,-2.067219,UK
Gloucestershire Royal Hospital,Hospital,+44 300 4222 222,,"Great Western Road, Gloucester, GL1 3NN",51.86609,-2.232491,UK
Golden Jubilee National Hospital,Hospital,,,"Beardmore Street, G81 4HX",55.906299,-4.42588,UK
Goole and District Hospital,Hospital,,,,53.715939,-0.874247,UK
Gordon Hospital,Hospital,,,"Bloomburg Street, London, SW1V 2RH",51.492166,-0.13595,UK
Gorseinon Hospital,Hospital,,,"Brynawel Road, SA4 4UU",51.672197,-4.047985,UK
Gower Physiotherapy Clinic,Hospital,+44 7929923526,,"33 Oldway, Swansea, SA3 3DE",51.578905,-4.044433,UK
Gransha Park Hospital,Hospital,,,Clooney Road,55.015507,-7.278551,UK
Grays Court Community Hospital,Hospital,,,"John Parker Close, Dagenham, RM10 9SR",51.539279,0.158058,UK
Great Oaks Hospice,Hospital,,,,51.799371,-2.616919,UK
Great Ormond Street Outpatients - Zebra and Hippo Clinic Areas,Hospital,,,"60 Great Ormond Street, London, WC1N 3JH",51.521632,-0.121322,UK
Great Western Hospital,Hospital,,,SN3 6BB,51.538888,-1.726806,UK
Greater Lancashire Hospital,Hospital,,,"Wyder Court, Preston, PR2 5BW",53.786478,-2.647867,UK
Greenbank Drive Surgery,Hospital,,,,53.389571,-2.930101,UK
Guisborough General Hospital,Hospital,,,,54.538608,-1.052554,UK
Guisborough Priory Hospital MIU,Hospital,,,,54.538601,-1.05323,UK
Gynaecology Department,Hospital,,,,51.390515,-0.109361,UK
HCA Healthcare UK Laboratories,Hospital,,,"2-10 Capper Street, London, WC1E 6JA",51.522587,-0.135248,UK
Hallam Street Hospital,Hospital,+44 121 612 8628,,"Hallam Street, West Bromwich, B71 4NH",52.527755,-1.985847,UK
Haltwhistle War Memorial Hospital,Hospital,+44 844 811 8111,,"Westgate, Haltwhistle, NE49 9AJ",54.970062,-2.463094,UK
Hammersmith Hospital,Hospital,,,,51.517388,-0.235288,UK
Hartswood Hospital,Hospital,,,CM13 3LE,51.600424,0.293018,UK
Haslemere & District Hospital,Hospital,,,"Church Lane, Haslemere, GU27 2BJ",51.092297,-0.707443,UK
Hawkhurst Community Hospital,Hospital,,,"Cranbrook, TN18 4PU",51.048891,0.489183,UK
Hay Lodge Hospital,Hospital,,,"Neidpath Road, EH45 8JG",55.651781,-3.198502,UK
Haywood Hospital Walk-in Centre,Hospital,+44 1782 581112,,"High Lane, Stoke-on-Trent, ST6 7AG, GB",53.056219,-2.190295,UK
Helston Community Hospital,Hospital,,,"Meneage Road, Helston, TR13 8DR, GB",50.091791,-5.265172,UK
Hillingdon Hospital,Hospital,,,"Pield Heath Road, Uxbridge, UB8 3NN",51.52555,-0.461464,UK
Hinchingbrooke Hospital,Hospital,,,,52.332468,-0.20216,UK
Holy Cross Hospital,Hospital,+44 1428 643311,reception@holycross.org.uk,"Hindhead Road, Haslemere, GU27 1NQ",51.090521,-0.73721,UK
Homerton University Hospital,Hospital,,,,51.550645,-0.045502,UK
Honiton Community Hospital,Hospital,+44 1404 540540,rduh.honitonreception@nhs.net,"Marlpits Lane, Honiton, EX14 2DE",50.795216,-3.186998,UK
Horncastle War Memorial Hospital,Hospital,,,"North Street, Horncastle, LN9 5DX",53.2105,-0.113765,UK
Horsham Hospital,Hospital,,,"Hurst Road, Horsham, RH12 2DR",51.070103,-0.324414,UK
Horton Midwifery-led Unit,Hospital,+44 1295 229459,,"Oxford Road, Banbury, OX16 9AL",52.053652,-1.333502,UK
Hospital Car Park,Hospital,,,,52.066149,-1.622924,UK
Hospital of St Cross,Hospital,,,,52.364075,-1.257376,UK
Hounslow Medical Centre,Hospital,,,,51.469439,-0.377273,UK
Huddersfield Royal Infirmary,Hospital,,,,53.655345,-1.815101,UK
Huddersfield Royal Infirmary Acre Street Outpatents,Hospital,,,,53.655598,-1.820265,UK
Hunters Moor Neurorehabilitation Unit,Hospital,,,,52.441384,-1.842697,UK
Hythe Hospital,Hospital,,,,50.858762,-1.402895,UK
Ilkeston Community Hospital,Hospital,,,"Heanor Road, Ilkeston, DE7 8LN",52.988155,-1.320774,UK
Information Unit,Hospital,,,,51.891896,-2.067085,UK
Insch War Memorial Hospital,Hospital,,,,57.340406,-2.613992,UK
Inverclyde Royal Hospital,Hospital,,,,55.943786,-4.809429,UK
Inverurie Hospital,Hospital,,,,57.276805,-2.379316,UK
Isebrook Hospital,Hospital,+44 3000 272700,,"Irthlingborough Road, Wellingborough, NN8 1LP, GB",52.298008,-0.683125,UK
Islay Hospital,Hospital,,,"Gortonvogie Road, Bowmore, PA43 7JD",55.755766,-6.279344,UK
Ivy Court Surgery (temporary location),Hospital,,,"Recreation Ground Road, Tenterden, TN30 6RB",51.067893,0.690931,UK
Jacob's Neuro Centre,Hospital,,,,51.80781,0.137517,UK
Jasmine Centre,Hospital,,,,51.433896,0.26085,UK
John Munroe Hospital,Hospital,+44 1538 394270,,ST13 8RU,53.125087,-2.08255,UK
John Radcliffe Hospital,Hospital,+44 300 304 7777,,"Headley Way, Oxford, OX3 9DU",51.764124,-1.219491,UK
Kelso Hospital (Inch Hosp.),Hospital,,,"Inch Road, TD5 7JP",55.602631,-2.435701,UK
Kent Community Health,Hospital,,,,51.078864,1.1803,UK
Kent and Canterbury Hospital,Hospital,+44 1227 766877,,"Ethelbert Road, Canterbury, CT1 3NG, GB",51.265934,1.086839,UK
Kettering General Hospital,Hospital,+44 1536 492000,,"Rothwell Road, Kettering, NN16 8UZ, GB",52.401904,-0.741435,UK
Kidderminster Hospital,Hospital,,,,52.385181,-2.26139,UK
King Edward VII Hospital,Hospital,,,,51.473523,-0.614058,UK
King Edward VII's Hospital,Hospital,,,"5-10 Beaumont Street, London, W1G 6AA, GB",51.520934,-0.150418,UK
King's / Dartford Dialysis Unit,Hospital,,,,51.433839,0.260842,UK
King's College Hospital Emergency Department,Hospital,+44 20 3299 9000,,,51.468759,-0.092795,UK
Kings Cross Hospital,Hospital,,,"Clepington Road, Dundee, DD3 8EA",56.476793,-2.987167,UK
Kings Park Hospital,Hospital,,,,50.731772,-1.833057,UK
Kingston Hospital,Hospital,,,"Galsworthy Road, Kingston upon Thames, KT2 7QB",51.414916,-0.282685,UK
Kneesworth House Hospital,Hospital,,,,52.07915,-0.031821,UK
Knoll Community Hospital,Hospital,,,"Station Road, TD11 3EL",55.772534,-2.34113,UK
Lady Home Cottage Hospital,Hospital,,,,55.558266,-3.838947,UK
Laidlaw Day Hospital,Hospital,,,,50.708893,-1.299499,UK
Lakeview,Hospital,,,,55.015395,-7.282684,UK
Lambeth Hospital,Hospital,,,"108 Landor Road, London, SW9 9NU",51.465331,-0.122496,UK
Lampeter Medical Practice,Hospital,,,"Bridge Street, Lampeter, SA48 7AA",52.112596,-4.076953,UK
Lanchester Road Hospital,Hospital,,,"Lanchester Road, Durham, DH1 5RD",54.799609,-1.61147,UK
Lawson Memorial Hospital,Hospital,,,,57.972549,-3.987619,UK
Leatherhead Clinic,Hospital,+44 1372 384300,,"Poplar Road, Leatherhead, KT22 8SD",51.295826,-0.319531,UK
Leeds General Infirmary,Hospital,,,,53.802357,-1.552833,UK
Leeds Student Medical Practice,Hospital,,,"Leeds, LS2 9AE",53.807373,-1.549102,UK
Leicester Nuffield Hospital,Hospital,,,"Scraptoft Lane, LE5 1HY",52.644024,-1.071369,UK
Leigh Health Centre,Hospital,+44300 707 1635,,,53.504213,-2.510725,UK
Lightwood House,Hospital,,,,53.337713,-1.439925,UK
Lincoln County Hospital,Hospital,,,,53.233493,-0.518393,UK
Lincoln Wing - A Block Entrance,Hospital,,,,53.806715,-1.520513,UK
Linnea Cromwell Hospital,Hospital,,,,52.332565,-0.186661,UK
Lister Hospital,Hospital,+44 1438 314333,,"Coreys Mill Lane, Stevenage, SG1 4AB",51.924738,-0.213963,UK
Lister Hospital,Hospital,,,"Chelsea Bridge Road, London, SW1W 8RH",51.486423,-0.150183,UK
Listonshells Day Centre,Hospital,,,,53.760967,-1.733026,UK
Little Woodhouse Hall,Hospital,,,"18 Clarendon Road, Leeds, LS2 9NT",53.802974,-1.557068,UK
Livingstone Community Hospitals,Hospital,+44 1322 622374,,"East Hill, Dartford",51.44223,0.226764,UK
Llandough Hospital,Hospital,,,"Penlan Road, Llandough, CF64 2XX",51.448025,-3.202898,UK
Llandovery Hospital,Hospital,+44 1550 722200,,"Llanfair Road, Llandovery, SA20 0LA",51.998719,-3.796741,UK
Llanfrechfa Grange,Hospital,,,"Caerleon Road, Llanfrechfa, NP44 8YN",51.644868,-2.996806,UK
Lochmaben Hospital,Hospital,,,,55.127976,-3.453851,UK
Lochmaben Medical Group,Hospital,+441387 810252,dg.gpclin.y18377@nhs.scot,"42-44 High Street, Lochmaben, DG11 1NH",55.127571,-3.439733,UK
Lockhart Hospital,Hospital,,,,55.670075,-3.759906,UK
Lorn and Islands Hospital,Hospital,,,,56.400229,-5.474866,UK
Loughborough Hospital,Hospital,,,"Loughborough, GB",52.773263,-1.225791,UK
Lydney & District Hospital,Hospital,+44 300 421 8722,,"Grove Road, Lydney, GL15 5JE",51.728407,-2.538476,UK
Lymington New Forest Hospital,Hospital,,,"Wellworthy Road, Lymington, SO41 8QD",50.769339,-1.545815,UK
MRI,Hospital,,,,51.38883,-0.10883,UK
MS (Multiple Scelerosis) Therapy Centre,Hospital,,,,52.335637,-0.168689,UK
MacKinnon House,Hospital,,,,55.892924,-4.223675,UK
Macmillan Cancer Support Centres,Hospital,,,,51.389544,-0.11159,UK
Macular Clinic,Hospital,,,,54.607996,-5.9395,UK
Maidstone Hospital,Hospital,,,ME16 9QQ,51.27469,0.485671,UK
Main Entrance,Hospital,,,,52.654602,-1.179168,UK
Main Entrance (Broadgreen),Hospital,,,,53.412128,-2.898618,UK
Main Entrance (LHCH),Hospital,,,"Thomas Drive, Liverpool, L14 3PE",53.410229,-2.899664,UK
Main Outpatients,Hospital,,,,50.418012,-4.118834,UK
Main Reception,Hospital,,,,51.389253,-0.111157,UK
Main X-Ray,Hospital,,,,51.389109,-0.108793,UK
Malvern Community Hospital,Hospital,,,"185 Worcester Road, Malvern, WR14 1EX",52.124841,-2.320933,UK
Manchester University Hospitals (central site),Hospital,,,,53.461599,-2.225239,UK
Manfield Health Campus,Hospital,+44 1536 480300,,"Kettering Road, Northampton, NN3 6NP, GB",52.265135,-0.863489,UK
Maple Suite,Hospital,,,,53.410139,-2.900675,UK
Mardon Neuro-Rehabilitation Centre,Hospital,+44 1392 208580,,"Wonford Road, Exeter, EX2 4UD",50.717259,-3.513575,UK
Marie Curie Hospice,Hospital,+441518011400,,"Speke Road, Liverpool, L25 8QA",53.373722,-2.864353,UK
Marie Curie Hospice,Hospital,,,,52.411277,-1.76028,UK
Marine Court Psychiatric Unit,Hospital,,,"4 Marine Road, Colwyn Bay, LL29 8PH, GB",53.29761,-3.731977,UK
Market Harborough Medical Centre,Hospital,,,"67 Coventry Road, Market Harborough, LE16 9BX",52.476652,-0.925244,UK
Mary Hewetson Cottage Hospital,Hospital,+44 1768 245678,,"Crosthwaite Road, Keswick, CA12 5PH",54.606592,-3.139838,UK
Maternity Reception,Hospital,,,,51.391293,-0.111059,UK
Medlabs Diagnostics,Hospital,,,,51.5209,-0.11247,UK
Medway Maritime Hospital,Hospital,+44 1634 830000,medwayft.pals@nhs.net,"Windmill Road, Gillingham, ME7 5NY, GB",51.379623,0.541633,UK
Middleton Community Health Centre,Hospital,,,,53.742781,-1.547186,UK
Middleton St.George Hospital,Hospital,,,,54.517055,-1.433047,UK
Mill View,Hospital,,,,53.777579,-0.439834,UK
Minor Injuries Unit,Hospital,,,"Cardiff Road, Newport, NP20 2UB",51.58053,-2.99679,UK
Monkwearmouth Hospital,Hospital,,,,54.923648,-1.385882,UK
Montfield Hospital,Hospital,,,,60.153557,-1.151833,UK
Moorfields Eye Unit,Hospital,,,,51.389307,-0.109984,UK
Moorfields at Hoxton,Hospital,,,"1 & 5 Bracklyn Street, London, N1 7TX",51.534681,-0.089875,UK
Moorlands View,Hospital,,,"Heights Lane, Bradford, BD9 6DP",53.810625,-1.804911,UK
Moreton Hospital,Hospital,,,,50.662817,-3.767032,UK
Morriston Hospital,Hospital,,,,51.683531,-3.935429,UK
Moseley Hall Hospital,Hospital,,,,52.446342,-1.893374,UK
Mount Gould Hospital,Hospital,,,"Mount Gould Road, Plymouth, PL4 7QD",50.37805,-4.113081,UK
Mount Hawke Surgery,Hospital,,,"Short Cross Road, Truro, TR4 8UE, GB",50.280754,-5.209887,UK
Mount Vernon,Hospital,,,,51.61563,-0.445971,UK
Mountainhall Treatment Centre,Hospital,,,,55.057022,-3.598934,UK
Musgrove Park Hospital,Hospital,+44 1823 333444,pals@tst.nhs.uk,"Parkfield Drive, Taunton, TA1 5DA",51.011481,-3.121031,UK
NG Cleaning Services,Hospital,,,,50.991641,-2.681115,UK
NHS Albany Lodge and St Albans Children Centre,Hospital,,,,51.755344,-0.344046,UK
NHS Records Office,Hospital,,,,51.892271,-2.068116,UK
NHS Treatment Centre,Hospital,,,"Nottingham, NG7 2FT",52.942333,-1.18248,UK
Nairn Town and County Hospital,Hospital,,,"Cawdor Road, Nairn, IV12 5EE",57.57817,-3.873297,UK
National Hospital for Neurology and Neurosurgery at Cleveland Street,Hospital,,,"25 Cleveland Street, London, W1T 4AJ",51.519657,-0.138002,UK
Neath Port Talbot Hospital,Hospital,,,,51.5987,-3.80135,UK
"Neonatal Unit, L1 Z2",Hospital,,,"Glen Road, London, E13 8SL",51.522985,0.036765,UK
Nevill Hall Hospital,Hospital,,,"Brecon Road, Abergavenny, NP7 7EG",51.823952,-3.03399,UK
Newham University Hospital,Hospital,,,,51.521674,0.03664,UK
Newlands Care Home,Hospital,,,"122 Heaton Moor Road, Stockport, SK4 4JY",53.422565,-2.185415,UK
Newmarket Hospital (no A&E),Hospital,,,"56 Exning Road, Newmarket, CB8 7JG, GB",52.251114,0.399948,UK
Newquay Hospital,Hospital,,,,50.410929,-5.073995,UK
Ninewells Hospital,Hospital,,,DD1 9SY,56.463684,-3.037274,UK
Norbury Health Centre,Hospital,,,,51.404985,-0.120361,UK
Norfolk and Norwich University Hospital:Emergency Department,Hospital,+44 1603 286286,,"Colney Lane, Norwich, NR4 7UY",52.617334,1.220965,UK
North London Hospice Winchmore Hill,Hospital,,,,51.624991,-0.092509,UK
North Manchester General Hospital,Hospital,,,,53.517719,-2.22871,UK
North Middlesex University Hospital,Hospital,,,,51.613284,-0.073543,UK
North Staffordshire Nuffield Hospital,Hospital,,,"Clayton Road, ST5 4DB",52.987692,-2.223219,UK
North Tees Hospital,Hospital,,,"Hardwick Road, Stockton-on-Tees, TS19 8PE, GB",54.582608,-1.347446,UK
Northampton General Hospital,Hospital,+44 1604 634700,,"Cliftonville Road, Northampton, NN1 5BD, GB",52.236057,-0.88382,UK
Northcroft Hospital,Hospital,,,"Reservoir Road, Birmingham, B23 6DW",52.523229,-1.855124,UK
Northern General Hospital,Hospital,,,"Herries Road, Sheffield, S5 7AU",53.410368,-1.458305,UK
Northgate Hospital,Hospital,+44 191 246 6800,,"Morpeth, NE61 3BP",55.184791,-1.708951,UK
Northumbria Specialist Emergency Care Hospital,Hospital,,,"Northumbria Way, Cramlington, NE23 6NZ, GB",55.074836,-1.568877,UK
Northwick Park Hospital,Hospital,+44 20 8864 3232,,"Watford Road, Harrow, HA1 3UJ, GB",51.575335,-0.321525,UK
Norwich Community Hospital,Hospital,,,,52.634371,1.262908,UK
Nuffield Clinic,Hospital,,,,50.418565,-4.114957,UK
Nuffield Health Brighton Hospital,Hospital,,,"Warren Road, Brighton, BN2 6DX",50.834549,-0.081974,UK
Nuffield Health Chichester Hospital,Hospital,,,"Broyle Road, Chichester, PO19 6WB",50.847958,-0.779953,UK
Nuffield Health Derby Hospital,Hospital,+44 1332 540100,,"Rykneld Road, Derby, DE23 4SN",52.893404,-1.530298,UK
Nuffield Health Hereford Hospital,Hospital,,,"2 Venns Lane, Hereford, HR1 1DF",52.06381,-2.699932,UK
Nuffield Hospital,Hospital,+44 1392 249341,,"Wonford Road, Exeter, EX2 4UG",50.716448,-3.511948,UK
Nuffield Hospital,Hospital,,,"Haxby Road, York, YO31 8TA, GB",53.974411,-1.075902,UK
Nuffield Orthopaedic Centre,Hospital,,,,51.754543,-1.209015,UK
Nuffield Taunton,Hospital,,,"Showell Park, Taunton, TA2 6AN, GB",51.028657,-3.128258,UK
Oak Ward,Hospital,,,,53.411554,-2.89976,UK
Occupational Health Center,Hospital,,,,53.585788,-0.624502,UK
Optimal Vision,Hospital,,,"7 Gower Mews, London, WC1E 6HA",51.519966,-0.130212,UK
Orchard Private Hospital,Hospital,,,"189 Fairlee Road, Newport, PO30 2EP, GB",50.712386,-1.281203,UK
Ormskirk District General Hospital,Hospital,,,"Wigan Road, Lancashire, L39 2AZ",53.564958,-2.872503,UK
Orsborn House NHS Substance Misuse Services,Hospital,,,,52.501055,-1.921332,UK
Oswestry Minor Injuries Unit,Hospital,,,,52.862574,-3.047814,UK
Ottery St Mary Hospital,Hospital,,,,50.750241,-3.291435,UK
Outpatients & Radiology (LHCH),Hospital,,,,53.411658,-2.89986,UK
Outwood Site,Hospital,,,"Belvedere Road, Burton-on-Trent, DE13 0RB",52.820487,-1.659282,UK
Oxted Health Center,Hospital,,,,51.257663,-6e-05,UK
PJ Care Mallard House Neurological Care Centre,Hospital,,,"2 Dunthorne Way, Milton Keynes, MK8 0DZ, GB",52.023588,-0.808964,UK
Park Attwood Clinic,Hospital,,,,52.414176,-2.300272,UK
Parkfield Medical Centre,Hospital,,,"Sefton Road, Wirral, CH62 5HS, GB",53.363066,-2.99995,UK
Parklands Hospital,Hospital,,,"Basingstoke, RG24 9RH",51.282706,-1.112246,UK
Parkside Medical Centre,Hospital,,,"Whalley Drive, Milton Keynes, MK3 6EN, GB",51.998586,-0.746616,UK
Patient Advice and Liaison Service (PALS),Hospital,,,,51.388644,-0.108499,UK
Paul Brown Building,Hospital,,,,52.711615,-2.510829,UK
Paul Sykes Urology Centre,Hospital,,,,53.807636,-1.522174,UK
Paulton Memorial Hospital,Hospital,,,"Salisbury Road, Paulton, BS39 7SB",51.298834,-2.493324,UK
Pershore Hospital,Hospital,,,"Queen Elizabeth Drive, Pershore, WR10 1PS",52.11405,-2.077734,UK
Perth Royal Infirmary,Hospital,,,"Perth, PH1 1NX",56.39617,-3.455164,UK
Peterlee Community Hospital,Hospital,,,,54.754392,-1.333264,UK
Petersfield Hospital,Hospital,,,"Swan Street, Petersfield, GU32 3LB",51.003887,-0.942381,UK
Pharmacy (LHCH),Hospital,,,,53.41163,-2.899482,UK
Phlebotomy Drive Through Service,Hospital,,,"183 Longley Lane, S5 7JN",53.412964,-1.463099,UK
Phlebotomy Services,Hospital,,,"Tavistock Road, Plymouth, PL6 5UF",50.415924,-4.126934,UK
Pontypridd and District Hospital,Hospital,,,,51.602384,-3.326093,UK
Porthcawl Medical Centre,Hospital,,,,51.486248,-3.685821,UK
Portree Community Hospital,Hospital,,,"Fancy Hill, Portree, IV51 9BZ, GB",57.41045,-6.193226,UK
Potters Bar Community Hospital,Hospital,,,"Barnet Road, Potters Bar, EN6 2RY",51.687172,-0.177418,UK
"Practice Plus Group Hospital, Shepton Mallet",Hospital,,,"Old Wells road, Shepton Mallet",51.189832,-2.562323,UK
Prince Charles Hospital / Ysbyty'r Tywysog Siarl,Hospital,+44 1685721721,,"Gurnos Road, CF47 9DT",51.763379,-3.386218,UK
Prince Philip Hospital,Hospital,,,,51.691968,-4.13546,UK
Princes House,Hospital,,,"73a London Road, Reading, RG1 5UZ",51.451766,-0.959018,UK
Princess Anne Hospital,Hospital,,,,50.935352,-1.435167,UK
Princess Royal Hospital,Hospital,,,"Telford, TF1 6TF",52.712424,-2.512858,UK
Princess of Wales Community Hospital,Hospital,,,"Stourbridge Road, Bromsgrove, B61 0BB",52.343695,-2.055967,UK
Priory Day Hospital,Hospital,,,"Hawkey's Lane, North Shields",55.011144,-1.456537,UK
Priory Health Park,Hospital,,,,51.203889,-2.655658,UK
Priory Hospital,Hospital,,,"The Bourne, London, N14 6RA",51.632064,-0.118304,UK
Priory Hospital Bristol,Hospital,,,,51.480608,-2.566792,UK
Priory Hospital Norwich,Hospital,,,"Ellingham Road, Attleborough, NR17 1AE",52.525602,0.991225,UK
Procurement & Supplies Department (Stores),Hospital,,,"Rothwell Road, NN16 8UZ",52.401178,-0.740577,UK
Proton International @ UCLH,Hospital,,,"1 Grafton Way, London, WC1E 6AS",51.523826,-0.136348,UK
Purley War Memorial Hospital,Hospital,+44 20 8401 3000,,"856 Brighton Road, Purley, CR8 2YL",51.340567,-0.114802,UK
Queen Alexandra Hospital,Hospital,+44 23 9228 6000,,"Portsmouth, PO6 3LY",50.850187,-1.070039,UK
Queen Elizabeth Hospital,Hospital,,,,52.756834,0.446668,UK
Queen Elizabeth Hospital,Hospital,,,"Queen Elizabeth Avenue, Gateshead, NE9 6SX",54.938827,-1.580332,UK
Queen Elizabeth II Hospital,Hospital,,,,51.782977,-0.188516,UK
Queen Elizabeth The Queen Mother Hospital,Hospital,,,,51.377117,1.389008,UK
Queen Margaret Hospital,Hospital,,,"Whitefield Road, Dunfermline, KY12 0SU",56.082099,-3.428465,UK
Queen Mary's Childrens' Hospital,Hospital,+44 20 8296 2000,est-tr.PALS@nhs.net,"Wrythe Lane, Carshalton, SM5 1AA",51.379798,-0.184842,UK
Queen Mary's Hospital,Hospital,,,"Frognal Avenue, DA14 6LT",51.418746,0.103933,UK
Queen Mary's Hospital,Hospital,,,"171 Roehampton Lane, London, SW15 5PN",51.454971,-0.241604,UK
Queen Square Imaging Centre,Hospital,,,,51.521738,-0.123057,UK
Queen Victoria Hospital,Hospital,+44 1524 400445,,"Thornton Road, Morecambe, LA4 5NN",54.072763,-2.858856,UK
Queen's Hospital,Hospital,,,"Belvedere Road, Burton-on-Trent, DE13 0RB",52.817207,-1.655931,UK
Queens Hospital,Hospital,+44 330 400 4333,,"Rom Valley Way, Romford, RM7 0AG",51.568723,0.181018,UK
Queens Medical Centre,Hospital,,,"Derby Road, Nottingham, NG7 2UH",52.943583,-1.185034,UK
RMC,Hospital,,,,51.240717,-0.94693,UK
Rainbow Ward,Hospital,,,,51.523304,0.035068,UK
Ramsay Fulwood Hall Hospital,Hospital,,,"Midgery Lane, Preston, PR2 9SZ, GB",53.786338,-2.683945,UK
Rathbone Hospital,Hospital,,,,53.407543,-2.914744,UK
Rauceby Hospital,Hospital,,,,52.983187,-0.4518,UK
Reaside,Hospital,,,,52.400492,-2.009858,UK
Research Dept (LHCH),Hospital,,,,53.411102,-2.898523,UK
Richmond Primary Care Centre,Hospital,+44 121 203 3000,,"299 Bordesley Green East, B33 8TA",52.47759,-1.816083,UK
Rikenel Health Centre,Hospital,,,,51.860396,-2.244828,UK
Ripley Hospital,Hospital,+44 1773 743456,,"Sandham Lane, Ripley, DE5 3HE",53.047944,-1.410977,UK
Riverdale,Hospital,,,"93 Riverdale Road, Sheffield, S10 3FE",53.37075,-1.520148,UK
Riverside Lodge Intermediate Care Unit,Hospital,,,,52.473515,-1.835401,UK
Romsey Hospital,Hospital,,,,50.992174,-1.481856,UK
Rosemount Resource Centre,Hospital,,,,53.260278,-2.146129,UK
Rotherham General Hospital,Hospital,+44 1709 820000,,,53.413818,-1.344013,UK
Rotherham Hospital Urgent Care Center/A&E,Hospital,,,,53.414726,-1.342627,UK
Rowley Regis Hospital,Hospital,,,"Moor Lane, B65 8DA",52.480917,-2.052547,UK
Royal Albert Edward Infirmary,Hospital,,,"Wigan Lane, Wigan, WN1 2NN",53.557825,-2.629816,UK
Royal Alexandra Hospital,Hospital,,,,55.835123,-4.4358,UK
Royal Berkshire Hospital,Hospital,,,"London Road, Reading, RG1 5AN",51.449191,-0.958009,UK
Royal Bournemouth Hospital,Hospital,+44 1202 303626,,"Castle Lane East, Bournemouth, BH7 7DW",50.747495,-1.822776,UK
Royal Brompton Hospital,Hospital,,,"Sydney Street, London, SW3 6PY",51.489166,-0.170971,UK
Royal Derby Hospital,Hospital,+44 1332 340131,,"Uttoxeter Road, Derby, DE22 3NE, GB",52.910957,-1.513034,UK
Royal Devon & Exeter Hospital (Heavitree),Hospital,,,"Gladstone Road, Exeter, EX1 2ED",50.724716,-3.513997,UK
Royal Glamorgan Hospital,Hospital,+44 1443 443 443,,"Ynysmaerdy, CF72 8XR",51.548297,-3.392291,UK
Royal Gwent Hospital,Hospital,+44 1633 234 234,abhb.enquiries@wales.nhs.uk,"Cardiff Road, Newport, NP20 2UB",51.580192,-2.997919,UK
Royal Hospital for Neuro-Disability,Hospital,,,"West Hill, London, SW15 3SW",51.451981,-0.213927,UK
Royal Infirmary of Edinburgh (Little France),Hospital,,,"51 Little France Crescent, Edinburgh, EH16 4SA",55.92217,-3.134598,UK
Royal Leamington Spa Rehabilitation Hospital,Hospital,,,,52.268921,-1.540415,UK
Royal National Orthopaedic Hospital,Hospital,,,,51.631594,-0.310836,UK
"Royal National Throat, Nose and Ear Hospital",Hospital,,,"330-332 Gray's Inn Road, London, WC1X 8EE",51.529241,-0.119268,UK
Royal Orthopaedic Hospital,Hospital,,,,52.420502,-1.961119,UK
Royal Shrewsbury Hospital,Hospital,,,"Mytton Oak Road, Shrewsbury, SY3 8XQ, GB",52.708986,-2.793743,UK
Royal South Hants Hospital,Hospital,,,"Brintons Terrace, Southampton, SO14 0YG",50.91259,-1.397489,UK
Royal South Hants Urgent Treatment Centre,Hospital,+44 3339997613,,"Brinton's Terrace, Southampton, SO14 0YG, GB",50.91291,-1.396461,UK
Royal Stoke University Hospital,Hospital,+44 1782 715444,,"Newcastle Road, ST4 6QG",53.003126,-2.213528,UK
Royal Surrey County Hospital,Hospital,,,"Egerton Road, Guildford, GU2 7XX",51.241171,-0.608856,UK
Royal United Hospital,Hospital,+44 1225 428331,,"Combe Park, BA1 3NG",51.39183,-2.391561,UK
Royal Victoria Infirmary,Hospital,+44 191 233 6161,,"Queen Victoria Road, Newcastle upon Tyne, NE1 4LP, GB",54.979552,-1.620289,UK
Royston Hospital,Hospital,,,"Royston, SG8 9EN",52.040843,-0.021915,UK
Runcorn Road Dialysis Unit,Hospital,,,,52.455643,-1.883742,UK
Russells Hall Hospital,Hospital,,,,52.502677,-2.118477,UK
Ruth Lancaster James Hospital,Hospital,+44 1434 381218,,"Church Road, Alston, CA9 3QX",54.810176,-2.440592,UK
Saffron Walden Community Hospital (no A&E),Hospital,,,,52.024271,0.258857,UK
Saint Andrew's Healthcare,Hospital,,,,52.435535,-1.915632,UK
Saint David's Hospital,Hospital,+44 29 2053 6666,,"Cowbridge Road East, Cardiff, CF11 9XB",51.481875,-3.194006,UK
Saint John's Hospital,Hospital,+44 1506 523000,,"Howden West Road, Livingston, EH54 6PP",55.892383,-3.522579,UK
Saint Martin's Hospital,Hospital,,,"Clara Cross Lane, BA2 5RP",51.35782,-2.371316,UK
Saint Mary's,Hospital,,,"Milton Road, Portsmouth, PO3 6DR, GB",50.799808,-1.063212,UK
Salford Gastric Bypass Surgery,Hospital,,,,53.48685,-2.294534,UK
Samuel Johnson Community Hospital,Hospital,,,"Trent Valley Road, Lichfield, WS13 6EF",52.685868,-1.815552,UK
Sarum Road Hospital (BMI),Hospital,,,,51.061401,-1.340537,UK
Scunthorpe General Hospital,Hospital,,,"Cliff Gardens, Scunthorpe, DN15 7BH",53.587002,-0.66719,UK
Seachange,Hospital,,,,50.631544,-3.319165,UK
Seafield Hospital,Hospital,,,"Barhill Road, AB56 1SF",57.668066,-2.981698,UK
Seaton Hospital,Hospital,,,"Valley View, Seaton, EX12 2UU",50.711946,-3.07183,UK
Senior Finance & Information Teams and Service Agreement Team,Hospital,,,,51.891803,-2.066955,UK
Sexual Health Clinic,Hospital,,,,51.391181,-0.11231,UK
Sheffield Children's Hospital A&E,Hospital,,,,53.380948,-1.491128,UK
Sheppey Community Hospital,Hospital,+44 1795 879100,,"Plover Road, Minster-on-Sea, ME12 3LT",51.415321,0.792711,UK
Shepton Mallet Community Hospital,Hospital,,,,51.190272,-2.562512,UK
Shettleston Day Hospital & Parkview Resource Centre,Hospital,,,"Wellshot Road, Glasgow, G32 7AX",55.848891,-4.175911,UK
Shiv Lodge Medical Centre,Hospital,,,,53.456106,-2.202265,UK
Shrewsbury & Telford Hospital NHS Trust Sterile Services Department (SSD),Hospital,,,,52.717616,-2.483676,UK
Sidmouth Victoria Hospital,Hospital,,,,50.681606,-3.239567,UK
Sleep & Health Clinic,Hospital,,,"13-14 Fitzroy Square, London",51.52345,-0.140372,UK
Sloane Hospital,Hospital,+44 20 8466 6911,,"125 Albermarle Road, Beckenham, BR3 5HS",51.408204,-0.00454,UK
Solihull Hospital,Hospital,,,,52.417356,-1.774734,UK
South Entrance,Hospital,,,,52.653104,-1.179965,UK
South Liverpool NHS Treatment Centre,Hospital,,,,53.354784,-2.895618,UK
South Pembrokeshire Hospital,Hospital,,,"Fort Road, SA72 6SX",51.692851,-4.95709,UK
South Shore Primary Care Centre,Hospital,+44 1253 953399,,"575 Lytham Road, Blackpool, FY4 1TJ",53.781376,-3.047345,UK
South Tyneside District Hospital,Hospital,+44 191 404 1000,,"Harton Lane, South Shields, NE34 0PL",54.971564,-1.429007,UK
Southampton General Hospital,Hospital,,,"Tremona Road, Southampton, SO16 6YD",50.932517,-1.435405,UK
Southend University Hospital,Hospital,+44 1702 435555,,"Prittlewell Chase, Southend-on-Sea, SS0 0RY",51.554255,0.688172,UK
Southlands Hospital,Hospital,,,"Upper Shoreham Road, Shoreham-by-Sea, BN43 6TQ",50.840873,-0.256332,UK
Southmead Hospital,Hospital,+44 117 9505050,,"Southmead Road, Bristol, BS10 5NB, GB",51.496672,-2.591465,UK
Southport and Formby District General Hospital,Hospital,,,,53.633585,-2.978567,UK
SpaMedica Epsom,Hospital,,,,51.336107,-0.26185,UK
SpaMedica Oldham,Hospital,,,"48 Sheepfoot Lane, Oldham, OL1 2PD",53.554586,-2.125525,UK
Spire Bristol,Hospital,,,"Redland Hill, Bristol, BS6 6UT",51.472158,-2.614823,UK
Spire Clare Park Hospital,Hospital,,,"Farnham, GU10 5XX, GB",51.225202,-0.847354,UK
Spire Healthcare Parkway Hospital,Hospital,,,"Damson Parkway, Solihull, B91 2PP",52.421165,-1.762001,UK
Spire Murrayfield Hospital,Hospital,,,,55.943776,-3.264055,UK
Spire Southampton Hospital,Hospital,,,,50.93056,-1.432426,UK
St Albans City Hospital,Hospital,+44 1727 866122,,"Waverley Road, St Albans, AL3 5PN",51.760151,-0.343916,UK
St Ann's Hospital,Hospital,,,"St Ann's Road, London, N15 3TH, GB",51.580218,-0.088321,UK
St Anne's Centre & EMI Wards,Hospital,+44 1424 758101,,"729 The Ridge, Hastings, TN37 7PT",50.886916,0.564671,UK
St Anne's Hospice,Hospital,,,"Harding Avenue, Newport, NP20 6ZE",51.617945,-3.004821,UK
St Anthony's,Hospital,,,"Sutton, SM3 9DW",51.379899,-0.220725,UK
St Catherines,Hospital,,,,53.379891,-3.026273,UK
St Charles' Hospital,Hospital,,,,51.522221,-0.21761,UK
St George's Hospital,Hospital,+44 20 8672 1255,,"Blackshaw Road, London, SW17 0QT",51.426442,-0.175207,UK
St George's Hospital,Hospital,,,,52.810358,-2.109532,UK
St George's Hospital,Hospital,,,"Morpeth, NE61 2NU",55.178058,-1.682585,UK
St Georges Hospital,Hospital,,,,53.244132,-0.556858,UK
St Helens Hospital,Hospital,,,"Marshalls Cross Road, St Helens, WA9 3DA",53.439448,-2.719011,UK
St James's Hospital A&E,Hospital,+44 113 243 3144,,"Beckett Street, Leeds, LS9 7TF",53.806396,-1.52133,UK
St John Ambulance - Not manned 24/7,Hospital,,,,51.768124,-3.707879,UK
St Margaret's Hospital,Hospital,,,"Auchterarder, PH3 1JH",56.293279,-3.71869,UK
St Margarets Hospice,Hospital,,,"Heron Drive, Taunton, TA1 5HA, GB",51.017491,-3.128931,UK
St Mark's,Hospital,,,,51.575993,-0.320169,UK
St Mark's Hospital,Hospital,,,"St Mark's Road, Maidenhead, SL6 6DU",51.525542,-0.743422,UK
St Mary's Hospital,Hospital,,,"Green Hill Road, Leeds, LS12 3QE",53.799778,-1.61259,UK
St Mary's Hospital,Hospital,,,"Praed Street, London, W2 1NY",51.517482,-0.174285,UK
St Mary's Hospital,Hospital,,,"Thorpe Road, Melton Mowbray, LE13 1SJ, GB",52.76617,-0.876331,UK
St Matthews Hospital,Hospital,+44 1604 723530,,"22-23 St Matthews Parade, Northampton, NN2 7HF, GB",52.251448,-0.878472,UK
St Michael's Community Hospital,Hospital,,,,51.662016,-0.083919,UK
St Michael's Hospital,Hospital,,,,55.974814,-3.587277,UK
St Michaels,Hospital,,,"St Michaels Road, Warwick, CV34 5QW",52.288721,-1.594745,UK
St Monicas Hospital,Hospital,+44 1347821214,,"Long Street, York, YO61 3JD",54.118399,-1.189244,UK
St Patricks Centre for Community Health,Hospital,,,,52.464311,-1.887401,UK
St Peter's Hospital,Hospital,,,"Spital Road, Maldon, CM9 6EG, GB",51.73007,0.671516,UK
St Stephen's Centre Rehabilitation Day Care,Hospital,,,,52.498894,-1.935062,UK
St Thomas' Hospital,Hospital,+44 20 7188 7188,,"Westminster Bridge Road, London, SE1 7EH",51.499101,-0.118732,UK
St Woolos Hospital,Hospital,+44 1633 234234,abhb.enquiries@wales.nhs.uk,"Stow Hill, Newport, NP20 4SZ",51.581638,-3.003001,UK
St. Cadoc's Hospital,Hospital,,,"Lodge Road, Newport, NP18 3XQ",51.613505,-2.965809,UK
St. Helier Hospital,Hospital,+44 20 8296 2000,,"Wrythe Lane, Carshalton, SM5 1AA",51.380377,-0.184577,UK
St. James's University Hospital,Hospital,,,,53.807181,-1.521557,UK
St. Joseph's Hospital,Hospital,+44 1633 820 300,hello@stjosephshospital.co.uk,"Harding Avenue, Newport, NP20 6ZE",51.618198,-3.004307,UK
St. Luke's Hospital,Hospital,,,"Little Horton Lane, Bradford, BD5 0NA",53.783736,-1.761713,UK
St. Michael's Hospital,Hospital,,,,50.1805,-5.424417,UK
St. Pancras Hospital,Hospital,,,"St Pancras Way, London, NW1 0PE",51.536279,-0.131403,UK
Stephen Cottage Hospital,Hospital,,,,57.445631,-3.123875,UK
Stepping Hill Hospital,Hospital,+44 161 483 1010,,"Poplar Grove, SK2 7LE",53.384511,-2.133209,UK
Steppingley Hospital,Hospital,,,,52.011799,-0.513278,UK
Stewart House,Hospital,,,"The Rise, Leicester, LE19 3EQ, GB",52.582842,-1.210508,UK
Stirling Health and Care Village,Hospital,+44 1786 434000,,"Livilands Gate, Stirling, FK8 2AU",56.106622,-3.934801,UK
Stobhill Hospital,Hospital,,,,55.893265,-4.221667,UK
Stoke Mandeville Hospital,Hospital,,,"Mandeville Road, Aylesbury, HP21 8AL, GB",51.798292,-0.801917,UK
Stonehouse Hospital,Hospital,,,"Strathaven Road, ML9 3NT",55.692256,-3.991628,UK
Stratford Road Centre,Hospital,,,"572-576 Stratford Road, Birmingham, B11 4AN",52.451495,-1.864159,UK
Strathcarron Hospice,Hospital,,,"Randolph Hill, Denny, FK6 5HJ",56.02442,-3.939321,UK
Stratton Hospital,Hospital,,,"Hospital Road, Bude, EX23 9BP",50.830554,-4.517614,UK
Stroud General Hospital,Hospital,,,GL5 2HY,51.742817,-2.207722,UK
Sulis Hospital,Hospital,,,"Foxcote Avenue, BA2 8SQ",51.311445,-2.416645,UK
Summerfield Urgent Care Centre,Hospital,,,"Heath Street, Birmingham, B18 7AL",52.487704,-1.93733,UK
Sunderland Eye Infirmary,Hospital,+44 191 565 6256,,"Queen Alexandra Road, Sunderland, SR2 9HP, GB",54.88925,-1.381085,UK
Sunderland Primary care Trust,Hospital,,,,54.926616,-1.446863,UK
Sunderland Royal Hospital,Hospital,,,"Chester Road, Sunderland, SR4 7TP",54.902863,-1.408844,UK
Sutton Coldfield Cottage Hospital,Hospital,,,"Birmingham Road, Sutton Coldfield, B72 1QH",52.558999,-1.82609,UK
Suttons Manor Hospital,Hospital,+44 1708 687 398,,"London Road, Romford, RM4 1BF",51.660966,0.18444,UK
Tamarind Centre,Hospital,,,,52.47491,-1.836038,UK
Tameside General Hospital,Hospital,,,,53.493215,-2.06998,UK
Tarporley War Memorial Hospital,Hospital,,,"14 Park Road, Tarporley, CW6 0AP",53.159226,-2.666827,UK
Tavistock Hospital,Hospital,,,"Spring Hill, Tavistock, PL19 8LD",50.547157,-4.153632,UK
Thame Community Hospital,Hospital,,,"East Street, Thame, OX9 3JT",51.74487,-0.969683,UK
The Ailsa Craig Medical Practise,Hospital,,,"270 Dickenson Road, M13 0YL",53.454395,-2.208768,UK
The Argyll and Bute Hospital,Hospital,,,,56.042451,-5.417217,UK
The Barberry National Centre for Mental Health,Hospital,,,"25 Vincent Drive, Birmingham, B15 2FG",52.44892,-1.942429,UK
The Beardwood Hospital,Hospital,,,"Preston New Road, Blackburn, BB2 7AA",53.755088,-2.513025,UK
The Christie at Oldham,Hospital,,,"Rochdale Road, Oldham, OL1 2JH, GB",53.552087,-2.121377,UK
The Claremont Hospital,Hospital,,,"401 Sandygate Road, Sheffield, S10 5UB",53.375321,-1.535931,UK
The Edgbaston Hospital,Hospital,,,,52.457457,-1.93318,UK
The Horton General Hospital,Hospital,,,,52.054006,-1.335844,UK
The Julian Hospital,Hospital,+44 1603 421800,,"Julian Hospital, Bowthorpe Road, Norwich, Norfolk, NR2 3TD",52.632554,1.262458,UK
The Lady Margaret Hospital,Hospital,+44 1475 530307,,KA28 0HF,55.76128,-4.922684,UK
The London Welbeck Hospital,Hospital,,,"27 Welbeck Street, London",51.518254,-0.149376,UK
The Manor,Hospital,,,"6 Church End, Biddenham, MK40 4AW, GB",52.138181,-0.513942,UK
The Manor Hospital,Hospital,,,,51.760257,-1.215479,UK
The Montefiore Hospital,Hospital,+44 1273 828 120,,"2 Montefiore Road, Hove, BN3 1RD",50.831437,-0.15565,UK
The Mulberry Centre,Hospital,,,,53.194867,-2.924694,UK
The Nuffield,Hospital,,,,54.593187,-1.33524,UK
The One Ashford Hospital,Hospital,,,,51.142555,0.912922,UK
The Paddocks Hospital,Hospital,,,Princes Risborough,51.728402,-0.826237,UK
The Portland Hospital,Hospital,,,"212 Great Portland Street, London",51.522471,-0.143586,UK
The Portland Hospital,Hospital,,,"205-209 Great Portland Street, London, W1W 5AH",51.523021,-0.144361,UK
The Princess Grace Hospital,Hospital,,,,51.522486,-0.15291,UK
The Priory Hospital,Hospital,+44 1214 402 323,,"Priory Road, Birmingham, B5 7UG",52.45568,-1.913753,UK
The Priory Hospital,Hospital,,,"Bristol Road, Birmingham, B5 7UB",52.456537,-1.910558,UK
The Priory Hospital,Hospital,,,,51.322564,-0.622598,UK
The Queen Elizabeth University Hospital Campus,Hospital,,,,55.862236,-4.340698,UK
The Retreat,Hospital,,,"Heslington Road, York, YO10 5BN",53.949754,-1.06255,UK
The Royal Alexandra Children's Hospital,Hospital,+44 1273 696955,,"Eastern Road, Brighton, BN2 5BE",50.819908,-0.117445,UK
The Royal Marsden Hospital,Hospital,,,,51.490573,-0.172546,UK
The Somerfield Hospital,Hospital,,,,51.276739,0.508001,UK
The State Hospital,Hospital,+44 1555 840293,,"Lampits Road, Carstairs, ML11 8RP",55.69517,-3.653323,UK
The Whittington Hospital,Hospital,,,"Magdala Avenue, London, N19 5NF",51.566645,-0.139318,UK
The Willows (Children's Clinic),Hospital,,,,51.389144,-0.109738,UK
The Wilson Hospital,Hospital,+44 20 8648 3021,,"Cranmer Road, Mitcham, CR4 4TP, GB",51.39751,-0.163146,UK
The Zinnia Centre,Hospital,,,"100 Showell Green Lane, Birmingham, B11 4HL",52.44909,-1.867413,UK
Thomas Linacre Outpatient Centre,Hospital,,,"Parson's Walk, Wigan, WN1 1RU",53.5504,-2.635279,UK
Thornbury Health Centre,Hospital,,,,51.612236,-2.517978,UK
Thurrock Community Hospital,Hospital,,,"Long Lane, Grays, RM16 2PX",51.496768,0.33649,UK
Tickhill Road,Hospital,,,,53.495562,-1.145686,UK
Tiverton and District Hospital,Hospital,,,"Kennedy Way, Tiverton, EX16 6NT",50.909234,-3.49335,UK
Tolworth Hospital,Hospital,+44 20 3513 5000,,"Red Lion Road, Surbiton, KT6 7QU, GB",51.379491,-0.289191,UK
Tonna Hospital,Hospital,,,,51.679761,-3.765446,UK
Totnes Community Hospital,Hospital,,,"Totnes, TQ9 5GH",50.432772,-3.684129,UK
Townlands Memorial Hospital,Hospital,+44 1865 903363,,"York Road, Henley-on-Thames, RG9 2DR",51.538674,-0.909039,UK
Tunbridge Wells Hospital at Pembury,Hospital,,,"Tonbridge Road, Pembury, TN2 4QJ",51.149029,0.308336,UK
Tunbridge Wells Independant Hospital,Hospital,,,,51.134048,0.185373,UK
Tunica Diagnostics,Hospital,,,"111 Charing Cross Road, London, WC2H 0DT",51.51455,-0.130012,UK
Tŷ Garngoch Hospital,Hospital,,,"Hospital Road, Gorseinon, SA4 4LH",51.658452,-4.011212,UK
Ugie Hospital,Hospital,,,"Ugie Road, Peterhead, AB42 1LZ",57.515017,-1.794354,UK
Ulster Hospital,Hospital,+44 28 9056 4875,,"Upper Newtownards Road, Belfast, BT16 1RH",54.597012,-5.811659,UK
University Hospital Plymouth Derriford,Hospital,,,,50.416317,-4.114246,UK
University Hospital of Hartlepool,Hospital,,,"Holdforth Road, Hartlepool, TS24 9AH",54.702347,-1.227793,UK
Until SOHO,Hospital,,,"111 Charing Cross Road, London, WC2H 0DT",51.514553,-0.129968,UK
Urgent Care Cambridge,Hospital,,,"Union Lane, Cambridge, CB4 1PX",52.218388,0.13679,UK
Urgent Treatment Centre,Hospital,,,,50.417977,-4.118607,UK
Vascular Ultrasound,Hospital,,,,51.389162,-0.110344,UK
Velindre@Nevill Hall Radiotherapy Unit,Hospital,,,"Brecon Road, Abergavenny, NP7 7EG",51.823654,-3.034577,UK
Victoria Hospital,Hospital,,,,55.830089,-5.055378,UK
Victoria Infimary,Hospital,,,,53.26168,-2.519229,UK
Vincent Square Clinic,Hospital,,,London,51.491474,-0.134545,UK
WIlliam Harvey Hospital,Hospital,+44 1233 633331,,"Kennington Road, Ashford, TN24 0LZ",51.141575,0.916478,UK
WW2 RAF Davidstow Sick Quarters,Hospital,,,,50.651158,-4.622658,UK
Walton Hospital,Hospital,,,"Whitecotes Lane, Chesterfield, S40 3HW",53.221491,-1.441596,UK
Wantage Community Hospital,Hospital,,,,51.589633,-1.418768,UK
"Ward 4B, Leverndale Hospital",Hospital,+44 141 211 6511,,,55.83629,-4.368759,UK
Warneford Hospital,Hospital,,,,51.750671,-1.221496,UK
Warrington Hospital,Hospital,,,"Lovely Lane, Warrington, WA5 1QG, GB",53.393748,-2.608807,UK
Waterside Hospital,Hospital,,,,55.013556,-7.280473,UK
Watford General Hospital,Hospital,+44 1923 244366,,"Vicarage Road, Watford, WD18 0HB, GB",51.649017,-0.404225,UK
Watford General Hospital,Hospital,+44 1923 244366,,"Vicarage Road, Watford",51.648517,-0.402044,UK
Weavers House,Hospital,,,"Swansea, SA1 1RU",51.617387,-3.935468,UK
Welbourn Hall Nursing and Residential Home,Hospital,,,"1 Hall Lane, Lincoln, LN5 0NN, GB",53.072386,-0.558296,UK
Wessex Hospital,Hospital,+44 23 8026 6377,,"Winchester Road, Eastleigh, SO53 2DW",50.996856,-1.359556,UK
West Middlesex Hospital,Hospital,,,Twickenham Road,51.473078,-0.32441,UK
West Midlands Hospital Ramsay Health care,Hospital,,,"Colman Hill, B63 2AH",52.457727,-2.076726,UK
West Park Hospital,Hospital,,,,52.5873,-2.141772,UK
Western Community Hospital,Hospital,,,,50.924939,-1.446583,UK
Western General Hospital (Edinburgh),Hospital,,,,55.962385,-3.234781,UK
Westminster Memorial Hospital,Hospital,,,"Abbey Walk, SP7 8BD",51.004724,-2.200126,UK
Wexham Park Hospital,Hospital,,,"Slough, SL2 4HL",51.53225,-0.574008,UK
Whipps Cross University Hospital,Hospital,,,"Whipps Cross Road, London, E11 1NR",51.577515,0.002042,UK
Whiston Hospital,Hospital,,,,53.420417,-2.784677,UK
Whitepost Health Care Group Head Office & Shrewsbury Court Independent Hospital,Hospital,,,"Whitepost Hill, Redhill, RH1 6YY",51.23663,-0.179928,UK
Whitwick Health Centre,Hospital,,,"North Street, Coalville, LE67 5HX",52.742688,-1.360727,UK
Whitworth Hospital,Hospital,,,"330 Bakewell Road, Matlock, DE4 2JD",53.150722,-1.574773,UK
Willen Hospice,Hospital,+44 1908 663636,,"Milton Road, Milton Keynes, MK15 9AB, GB",52.061902,-0.720017,UK
William Harvey Hospital,Hospital,,,,51.141859,0.914535,UK
William Harvey Hospital (Ashford),Hospital,+44 1233 633331,,"Kennington Road, Willesborough, TN24 0LZ",51.140583,0.916612,UK
Withington Clinic,Hospital,,,,53.430692,-2.228143,UK
Withybush Hospital,Hospital,,,"Fishguard Road, SA61 2PZ",51.813124,-4.96469,UK
Wokingham Hospital,Hospital,,,,51.410286,-0.845857,UK
Women's Health Unit,Hospital,,,,51.390933,-0.111065,UK
Woodbourne Priory Hospital,Hospital,,,,52.471337,-1.954877,UK
Woodburn House NHS,Hospital,,,,55.927521,-3.202426,UK
Woodhouse Health Centre,Hospital,,,"Leeds, LS6 2SF",53.812663,-1.547605,UK
Worcestershire Royal Hospital,Hospital,,,,52.191368,-2.18154,UK
Worthing Hospital,Hospital,,,"Lyndhurst Road, Worthing, BN11 2DH",50.8165,-0.364122,UK
Wound Clinic,Hospital,,,,51.389095,-0.110259,UK
Wrightington Hospital,Hospital,,,,53.589845,-2.711244,UK
Wycombe General Hospital,Hospital,,,HP11 2TT,51.626318,-0.754488,UK
Wythenshawe Hospital,Hospital,,,,53.388537,-2.292368,UK
Yorkshire Clinic,Hospital,,,"Bradford Road, Bingley, BD16 1TX",53.832252,-1.818165,UK
Ysbyty Abergele,Hospital,,,"Llanfair Road, Abergele, LL22 8DP, GB",53.265789,-3.583035,UK
Ysbyty Bronglais / Bronglais Hospital,Hospital,,,"Aberystwyth, SY23 1ER",52.416383,-4.071794,UK
Ysbyty Cefni,Hospital,,,"Bridge Street, Llangefni, LL77 7PP",53.256667,-4.304495,UK
Ysbyty Cwm Cynon,Hospital,+44 1685 721721,,"New Road, CF45 4BZ",51.687111,-3.392307,UK
Ysbyty Llandudno,Hospital,,,"Ffordd Ysbyty, Llandudno, LL30 1LB, GB",53.311124,-3.827654,UK
Zachary Merton Hospital,Hospital,+44 1903 858100,,"Glenville Road, Rustington, BN16 2EB",50.807949,-0.500672,UK
Zachary Merton Hospital,Hospital,,,,50.808048,-0.501099,UK
health center,Hospital,,,,53.857381,-2.167676,UK
krishna pemmaraju,Hospital,,,"Wood Road, Tettenhall, WV6 8LE",52.593591,-2.171427,UK
